,SA2_NAME16,Longitude,Latitude,X,Y,Remoteness,IRSD,PAP,PPHD,PSCD,PEMD,PLCS,PCS,PVOD,PVTD,PI,PCOB,PD,PML
1,Alexandra Hills,153.2291453,-27.53249611,1868969.075,-3262319.46,1,6,0.75984252,0.158163265,0.132653061,0.112244898,0.12244898,0.12755102,0.270408163,0.168367347,0.11023622,0.829213483,0.016853933,0.887139108
2,Belmont - Gumdale,153.1586531,-27.50709197,1862593.146,-3258524.623,1,10,0.866666667,0.08045977,0.103448276,0.103448276,0.022988506,0.034482759,0.195402299,0.091954023,0,0.795669824,0.02435724,0.755555556
3,Birkdale,153.2107387,-27.49970794,1867740.496,-3258498.833,1,8,0.858513189,0.138121547,0.165745856,0.143646409,0.093922652,0.138121547,0.303867403,0.171270718,0.038369305,0.900206469,0.01651755,0.95283773
4,Capalaba,153.2029441,-27.54307918,1866266.001,-3263074.952,1,6,0.842975207,0.144047619,0.135714286,0.119047619,0.086904762,0.108333333,0.283333333,0.154761905,0.152892562,0.931216931,0.028218695,0.958677686
5,Thorneside,153.2007063,-27.48444624,1867026.936,-3256698.75,1,5,0.972477064,0.130434783,0.130434783,0.086956522,0.086956522,0.108695652,0.282608696,0.152173913,0.128440367,0.932975871,0.048257373,1
6,Wellington Point,153.2414666,-27.49477931,1870786.891,-3258422.721,1,9,1,0.141666667,0.058333333,0.058333333,0.041666667,0.083333333,0.216666667,0.075,0.034246575,0.906432749,0.052631579,0.942922374
7,Cleveland,153.2674778,-27.53294806,1872658.018,-3262938.989,1,6,0.720538721,0.047244094,0.05511811,0.078740157,0.070866142,0.05511811,0.165354331,0.094488189,0.094276094,0.796278159,0.035259549,0.684624018
8,Ormiston,153.2551197,-27.51010685,1871847.886,-3260284.071,1,9,1,0.065217391,0.065217391,0.086956522,0.065217391,0.065217391,0.195652174,0.108695652,0.04137931,0.715705765,0,0.625287356
9,Redland Bay,153.290817,-27.64788175,1872985.035,-3275719.513,1,8,0.719230769,0.087719298,0.092105263,0.078947368,0.057017544,0.052631579,0.188596491,0.100877193,0.073076923,0.790171176,0.053009387,0.892307692
10,Sheldon - Mount Cotton,153.216893,-27.60767783,1866534.05,-3270270.502,1,10,0.899653979,0.047619048,0.063492063,0.063492063,0.063492063,0.031746032,0.111111111,0.071428571,0.062283737,0.909448819,0.017716535,1
11,Thornlands,153.2608906,-27.56767665,1871442.489,-3266597.582,1,9,0.93877551,0.057591623,0.078534031,0.073298429,0.010471204,0.036649215,0.157068063,0.073298429,0.107142857,0.893430657,0.061313869,1
12,Victoria Point,153.2868875,-27.58707755,1873623.947,-3269083.601,1,6,0.772222222,0.070422535,0.077464789,0.063380282,0.042253521,0.042253521,0.176056338,0.084507042,0.083333333,0.874600639,0.04313099,0.875925926
13,Redland Islands,153.4413898,-27.5587629,1888991.17,-3268333.969,3,1,0.829931973,0.142857143,0.095238095,0.095238095,0.095238095,0.047619048,0.26984127,0.095238095,0.380952381,0.845401174,0.035225049,0.616780045
14,Brisbane Port - Lytton,153.1978084,-27.3811297,1868468.131,-3245478.995,1,6,0.970938375,0.111547002,0.12842339,0.097261288,0.041802369,0.073593634,0.249703923,0.120928942,0.119747899,0.930077021,0.031208406,0.969537815
15,Manly - Lota,153.1855733,-27.46240272,1865933.821,-3254089.306,1,8,0.932038835,0.050632911,0.063291139,0.063291139,0.037974684,0.050632911,0.126582278,0.075949367,0.029126214,0.886740331,0,0.961165049
16,Manly West,153.1659499,-27.46748768,1863955.578,-3254348.204,1,8,0.966966967,0.112426036,0.171597633,0.130177515,0.047337278,0.088757396,0.278106509,0.147928994,0.102102102,0.872961373,0.015450644,0.910910911
17,Murarrie,153.1082177,-27.45397542,1858608.332,-3252031.284,1,8,1,0.075471698,0.094339623,0.037735849,0.037735849,0.094339623,0.245283019,0.075471698,0.109375,1,0.040089087,0.942708333
18,Tingalpa,153.1270458,-27.47359218,1860100.004,-3254432.202,1,8,0.846473029,0.14159292,0.097345133,0.053097345,0.026548673,0.03539823,0.203539823,0.088495575,0.099585062,1,0.071258907,0.993084371
19,Wakerley,153.1568604,-27.48277231,1862824.409,-3255866.998,1,10,0.941441441,0.076923077,0.092307692,0.097435897,0.020512821,0.035897436,0.194871795,0.087179487,0.031531532,0.833546735,0.034571063,0.8003003
20,Wynnum,153.1671116,-27.44039846,1864518.143,-3251434.818,1,6,0.985994398,0.114285714,0.142857143,0.085714286,0.021428571,0.064285714,0.271428571,0.107142857,0.112044818,0.898804781,0.028685259,0.963585434
21,Wynnum West - Hemmant,153.1409818,-27.44972721,1861841.105,-3252056.657,1,5,0.955882353,0.10880829,0.113989637,0.10880829,0.062176166,0.082901554,0.227979275,0.134715026,0.12745098,0.961349262,0.033731553,0.975490196
22,Bald Hills,153.0197327,-27.30750815,1852484.586,-3234877.674,1,7,1,0.067307692,0.096153846,0.096153846,0.038461538,0.086538462,0.259615385,0.086538462,0.103448276,0.938650307,0,0.968390805
23,Bridgeman Downs,152.9943548,-27.35207666,1849297.201,-3239326.304,1,10,0.919191919,0.082474227,0.082474227,0.072164948,0.010309278,0.092783505,0.18556701,0.082474227,0.050505051,0.743440233,0.052478134,0.717171717
24,Carseldine,153.0154596,-27.34742159,1851413.079,-3239133.357,1,9,0.97029703,0.03960396,0.079207921,0.069306931,0.00990099,0.01980198,0.099009901,0.069306931,0.069306931,1,0,0.881188119
25,Everton Park,152.9873726,-27.40077348,1847820.358,-3244492.846,1,9,1,0.064220183,0.091743119,0.082568807,0.04587156,0.110091743,0.23853211,0.100917431,0.074766355,1,0.064,1
26,McDowall,152.9917563,-27.38242757,1848546.019,-3242572.183,1,10,1,0.118181818,0.145454545,0.154545455,0.072727273,0.1,0.254545455,0.172727273,0.046728972,0.986631016,0.032085561,1
27,Aspley,153.0184896,-27.36686105,1851385.07,-3241281.369,1,8,1,0.080882353,0.066176471,0.044117647,0,0.044117647,0.132352941,0.073529412,0.054421769,0.952148438,0.0234375,0.891156463
28,Chermside,153.032048,-27.38542405,1852388.305,-3243489.692,1,4,1,0.090799031,0.095641646,0.099273608,0.041162228,0.078692494,0.203389831,0.105326877,0.180722892,1,0.041811847,0.678714859
29,Chermside West,153.0123898,-27.38316835,1850526.812,-3242956.008,1,9,0.597701149,0.02739726,0.054794521,0.095890411,0.02739726,0.054794521,0.136986301,0.082191781,0.034482759,0.825732899,0.029315961,0.816091954
30,Geebung,153.0472787,-27.37258405,1854071.533,-3242325.021,1,8,0.977443609,0.169811321,0.094339623,0.075471698,0,0.113207547,0.245283019,0.113207547,0.180451128,0.764578834,0.03887689,1
31,Kedron - Gordon Park,153.0304616,-27.40613352,1851893.144,-3245707.082,1,9,1,0.077380952,0.05952381,0.107142857,0.017857143,0.089285714,0.196428571,0.083333333,0.02739726,1,0.056470588,1
32,Stafford,153.010245,-27.40950845,1849885.198,-3245774.507,1,6,0.769230769,0.161764706,0.235294118,0.220588235,0.102941176,0.147058824,0.338235294,0.25,0.177514793,0.944162437,0,0.974358974
33,Stafford Heights,153.0091657,-27.39687253,1849989.38,-3244391.37,1,7,0.783625731,0.113402062,0.113402062,0.134020619,0.082474227,0.082474227,0.24742268,0.103092784,0.16374269,1,0.049833887,1
34,Wavell Heights,153.047534,-27.39223133,1853771.502,-3244454.58,1,10,0.861538462,0.056737589,0.092198582,0.056737589,0.035460993,0.035460993,0.177304965,0.063829787,0.024615385,0.969026549,0.037168142,1
35,Boondall,153.0697118,-27.34880648,1856631.802,-3240083.578,1,6,0.812749004,0.154761905,0.142857143,0.035714286,0.095238095,0.107142857,0.285714286,0.119047619,0.071713147,0.898617512,0.082949309,0.807436919
36,Brisbane Airport,153.1177625,-27.39239826,1860550.907,-3245510.473,1,10,0.961785975,0.08127656,0.080144249,0.073334356,0.045850633,0.046997014,0.179102323,0.087419612,0.042108689,0.944708251,0.024946012,0.907113406
37,Eagle Farm - Pinkenba,153.0966072,-27.43486501,1857804.344,-3249792.012,1,8,1,0.10495335,0.0917554,0.104025773,0.055933951,0.07257624,0.168362438,0.102310602,0,1,0,1
38,Northgate - Virginia,153.0677163,-27.38385238,1855859.248,-3243845.883,1,8,1,0.087912088,0.120879121,0.065934066,0.065934066,0.087912088,0.241758242,0.120879121,0.065934066,0.937205651,0.028257457,1
39,Nudgee - Banyo,153.0893473,-27.36735719,1858221.568,-3242380.85,1,8,0.924242424,0.110294118,0.125,0.169117647,0.058823529,0.044117647,0.257352941,0.132352941,0.068181818,1,0.065789474,1
40,Nundah,153.062051,-27.40249243,1855003.802,-3245779.015,1,7,0.920930233,0.108490566,0.134433962,0.091981132,0.063679245,0.08254717,0.257075472,0.122641509,0.074418605,1,0.055629139,0.812403101
41,Bracken Ridge,153.0342263,-27.32008053,1853677.804,-3236451.707,1,7,0.932773109,0.048192771,0.128514056,0.072289157,0.068273092,0.096385542,0.240963855,0.13253012,0.071428571,0.987364621,0.014440433,0.941176471
42,Brighton (Qld),153.0553248,-27.29648935,1856106.771,-3234210.635,1,7,1,0.14379085,0.111111111,0.130718954,0.078431373,0.08496732,0.261437908,0.14379085,0.041958042,0.867326733,0.035643564,1
43,Deagon,153.0595674,-27.3278102,1855998.922,-3237662.05,1,4,1,0.170212766,0.085106383,0.063829787,0.127659574,0.191489362,0.319148936,0.212765957,0,1,0.062937063,1
44,Sandgate - Shorncliffe,153.0684105,-27.32047128,1856974.85,-3236998.656,1,7,0.813559322,0.047058824,0.070588235,0.082352941,0.035294118,0.047058824,0.152941176,0.058823529,0.033898305,0.632850242,0,0.670433145
45,Taigum - Fitzgibbon,153.0388195,-27.34061457,1853782.508,-3238741.203,1,6,1,0.107142857,0.119047619,0.083333333,0.047619048,0.107142857,0.25,0.136904762,0.098039216,1,0.044485635,0.723311547
46,Zillmere,153.0389081,-27.35842162,1853496.919,-3240669.199,1,3,0.730923695,0.212962963,0.157407407,0.083333333,0.074074074,0.157407407,0.37037037,0.175925926,0.248995984,1,0.095454545,0.698795181
47,Camp Hill,153.0780029,-27.49630403,1854991.402,-3256164.568,1,10,0.972010178,0.046511628,0.034883721,0.046511628,0.011627907,0.029069767,0.11627907,0.029069767,0.03562341,0.845434939,0.030194105,0.975402884
48,Cannon Hill,153.0947514,-27.47237429,1857003.782,-3253822.834,1,9,0.909090909,0.052631579,0.039473684,0.052631579,0.026315789,0.026315789,0.092105263,0.065789474,0,0.937198068,0.028985507,1
49,Carina,153.0988143,-27.48755835,1857144.262,-3255525.696,1,9,1,0.126865672,0.134328358,0.141791045,0.052238806,0.074626866,0.23880597,0.149253731,0.021352313,1,0.072800809,1
50,Carina Heights,153.0912617,-27.50721017,1856090.003,-3257540.336,1,6,1,0.183098592,0.112676056,0.14084507,0.042253521,0.070422535,0.267605634,0.154929577,0.115942029,1,0.075,0.826086957
51,Carindale,153.1132316,-27.51058691,1858153.477,-3258230.341,1,10,0.970666667,0.10031348,0.10031348,0.086206897,0.031347962,0.061128527,0.20846395,0.097178683,0.021333333,0.84,0.023076923,0.707555556
52,Annerley,153.0324788,-27.51227721,1850335.166,-3257221.743,1,7,1,0.11827957,0.11827957,0.075268817,0.032258065,0.064516129,0.225806452,0.107526882,0.030927835,1,0.079881657,0.969072165
53,Coorparoo,153.0614554,-27.49879853,1853353.562,-3256190.323,1,10,1,0.058823529,0.070588235,0.047058824,0.023529412,0.082352941,0.152941176,0.064705882,0.016901408,0.901195219,0,0.937089202
54,Fairfield - Dutton Park,153.0246044,-27.50215689,1849742.523,-3256010.766,1,7,1,0.173913043,0.043478261,0.086956522,0.043478261,0,0.217391304,0.086956522,0,0.922330097,0,0.789272031
55,Greenslopes,153.0477371,-27.50706304,1851893.37,-3256882.31,1,8,1,0.094594595,0.135135135,0.108108108,0.121621622,0.121621622,0.22972973,0.162162162,0,1,0.037094281,0.97996357
56,Holland Park,153.0701084,-27.51849012,1853862.616,-3258448.556,1,7,0.846715328,0.038461538,0.053846154,0.061538462,0.038461538,0.046153846,0.123076923,0.053846154,0.02919708,0.878125,0.0375,0.914841849
57,Holland Park West,153.0604666,-27.52625378,1852804.117,-3259146.386,1,9,0.971751412,0.037037037,0.074074074,0.049382716,0.037037037,0.037037037,0.172839506,0.061728395,0,0.887459807,0.028938907,0.881355932
58,Woolloongabba,153.0365922,-27.49309276,1851048.871,-3255206.51,1,6,1,0.094339623,0,0.037735849,0,0.037735849,0.169811321,0,0,1,0,0.864864865
59,Yeronga,153.0105996,-27.52125799,1848076.199,-3257871.562,1,9,0.888888889,0.045454545,0.056818182,0.125,0.022727273,0.079545455,0.159090909,0.068181818,0.031746032,0.988023952,0.026946108,0.97707231
60,Eight Mile Plains,153.0920839,-27.57929603,1854975.222,-3265351.898,1,8,0.874396135,0.056179775,0.084269663,0.056179775,0.050561798,0.101123596,0.196629213,0.073033708,0.024154589,0.906593407,0.012362637,0.328502415
61,Macgregor (Qld),153.0730225,-27.56531483,1853368.845,-3263557.921,1,5,1,0.050847458,0.084745763,0.016949153,0.06779661,0.084745763,0.13559322,0.084745763,0,0.712290503,0.067039106,0.211221122
62,Mansfield (Qld),153.1051373,-27.53481124,1856971.095,-3260731.611,1,8,0.752066116,0.094827586,0.112068966,0.094827586,0.025862069,0.051724138,0.181034483,0.112068966,0.041322314,0.779640719,0.050299401,0.655647383
63,Mount Gravatt,153.0805104,-27.53359857,1854615.93,-3260236.738,1,7,0.85326087,0.158469945,0.174863388,0.169398907,0.081967213,0.163934426,0.327868852,0.207650273,0.076086957,1,0.05629398,1
64,Rochedale - Burbank,153.1463619,-27.56368664,1860467.333,-3264465.423,1,10,1,0.100917431,0.128440367,0.137614679,0.073394495,0.211009174,0.357798165,0.183486239,0.030150754,0.839488636,0.025568182,0.546063652
65,Upper Mount Gravatt,153.0814395,-27.55344298,1854377,-3262397.568,1,6,1,0.126126126,0.081081081,0.09009009,0.063063063,0.099099099,0.27027027,0.09009009,0.098360656,1,0.046082949,0.932604736
66,Wishart,153.1010728,-27.55447627,1856253.18,-3262799.219,1,9,0.843205575,0.111111111,0.104166667,0.166666667,0.048611111,0.111111111,0.270833333,0.131944444,0.034843206,0.765765766,0.036036036,0.56213705
67,Coopers Plains,153.0365155,-27.56567465,1849842.636,-3263058.97,1,4,1,0.113207547,0.150943396,0.132075472,0.075471698,0.094339623,0.264150943,0.150943396,0.126126126,1,0,0.618618619
68,Moorooka,153.0245844,-27.53434847,1849209.223,-3259493.743,1,7,1,0.066037736,0.132075472,0.094339623,0.037735849,0.075471698,0.188679245,0.103773585,0.045977011,1,0.019715225,1
69,Robertson,153.0574077,-27.56537195,1851862.235,-3263333.913,1,6,1,0.129032258,0.048387097,0.129032258,0.016129032,0.129032258,0.290322581,0.080645161,0,0.810584958,0.050139276,0.14379085
70,Salisbury - Nathan,153.0442006,-27.54888567,1850861.118,-3261355.497,1,7,0.898989899,0.2375,0.0625,0.1,0.075,0.05,0.2875,0.1375,0.101010101,0.926724138,0.034482759,0.882154882
71,Tarragindi,153.0455862,-27.52708178,1851355.058,-3259016.677,1,10,1,0.064935065,0.084415584,0.038961039,0.006493506,0.012987013,0.116883117,0.058441558,0.027472527,0.874704492,0.037825059,1
72,Algester,153.0324124,-27.61273975,1848669.763,-3268091.283,1,6,0.842105263,0.128,0.112,0.112,0.072,0.12,0.296,0.144,0.022556391,0.998922414,0.019396552,0.611528822
73,Calamvale - Stretton,153.0673292,-27.62827487,1851778.267,-3270286.318,1,8,1,0.096573209,0.115264798,0.087227414,0.07165109,0.152647975,0.267912773,0.115264798,0.01618123,1,0.011054813,0.308522114
74,Pallara - Willawong,153.0033288,-27.62139227,1845723.697,-3268600.067,1,8,1,0.116071429,0.160714286,0.133928571,0.107142857,0.053571429,0.276785714,0.151785714,0.152866242,1,0.077205882,0.72611465
75,Parkinson - Drewvale,153.0387613,-27.64450169,1848757.032,-3271621.522,1,9,0.882978723,0.07037037,0.151851852,0.062962963,0.062962963,0.088888889,0.237037037,0.107407407,0.031914894,0.941594718,0.027425089,0.482269504
76,Rocklea - Acacia Ridge,153.0122696,-27.56783682,1847468.932,-3262936.267,1,1,0.916334661,0.108108108,0.130977131,0.097713098,0.081081081,0.117463617,0.269230769,0.12993763,0.111553785,1,0.026966292,0.557768924
77,Kuraby,153.0937457,-27.60684124,1854679.108,-3268356.752,1,7,0.941580756,0.108108108,0.072072072,0.099099099,0.081081081,0.117117117,0.297297297,0.09009009,0.020618557,0.821674877,0.04137931,0.295532646
78,Runcorn,153.0767832,-27.59818282,1853187.442,-3267169.686,1,5,0.918781726,0.123152709,0.177339901,0.123152709,0.098522167,0.236453202,0.354679803,0.187192118,0.060913706,0.976693372,0.043699927,0.379018613
79,Sunnybank,153.0595115,-27.57840867,1851849.505,-3264775.506,1,4,0.906832298,0.096910112,0.117977528,0.085674157,0.068820225,0.16011236,0.280898876,0.129213483,0.037267081,1,0.074733096,0.265010352
80,Sunnybank Hills,153.0521382,-27.5959616,1850848.438,-3266566.152,1,5,0.908296943,0.082508251,0.105610561,0.052805281,0.056105611,0.138613861,0.244224422,0.112211221,0.03930131,0.901496259,0.011221945,0.331877729
81,Jindalee - Mount Ommaney,152.9350173,-27.5400345,1840475.928,-3258794.197,1,10,0.89380531,0.191011236,0.123595506,0.123595506,0.02247191,0.06741573,0.224719101,0.146067416,0.026548673,0.750948167,0.053097345,0.805309735
82,Middle Park - Jamboree Heights,152.927314,-27.55609946,1839469.008,-3260419.922,1,9,1,0.219047619,0.114285714,0.142857143,0.057142857,0.085714286,0.314285714,0.19047619,0,0.903183024,0.055702918,0.862385321
83,Riverhills,152.9094124,-27.56187028,1837647.686,-3260782.538,1,9,0.827586207,0.158730159,0.142857143,0.206349206,0.095238095,0.095238095,0.349206349,0.19047619,0,1,0.035433071,0.873563218
84,Seventeen Mile Rocks - Sinnamon Park,152.9520586,-27.54580794,1842024.823,-3259668.651,1,10,1,0.11965812,0.085470085,0.11965812,0,0.034188034,0.239316239,0.085470085,0.027874564,0.928358209,0.035820896,0.843205575
85,Westlake,152.9127589,-27.54862272,1838187.851,-3259397.824,1,10,1,0.122807018,0.087719298,0.070175439,0.035087719,0,0.228070175,0.070175439,0.077669903,0.885793872,0.066852368,0.841423948
86,Bellbowrie - Moggill,152.8792427,-27.57302796,1834555.072,-3261549.264,1,10,0.991304348,0.119047619,0.142857143,0.148809524,0.029761905,0.083333333,0.303571429,0.142857143,0.017391304,0.766009852,0.024630542,0.850241546
87,Brookfield - Kenmore Hills,152.8753568,-27.4769815,1835753.379,-3251097.999,1,10,0.939759036,0.164179104,0.208955224,0.119402985,0.029850746,0.074626866,0.298507463,0.164179104,0,0.527240773,0,0.642570281
88,Chapel Hill,152.9483795,-27.49888589,1842441.401,-3254537.083,1,10,0.98089172,0.007874016,0.047244094,0.086614173,0,0.007874016,0.086614173,0.047244094,0,0.712465878,0.032757052,0.700636943
89,Fig Tree Pocket,152.961901,-27.52783905,1843269.814,-3257868.483,1,10,0.984375,0.042553191,0,0.021276596,0.021276596,0.021276596,0.106382979,0,0,0.677200903,0,0.703125
90,Kenmore,152.9376322,-27.51683361,1841109.398,-3256321.784,1,10,1,0.135338346,0.097744361,0.142857143,0.022556391,0.060150376,0.263157895,0.127819549,0,0.756410256,0.019230769,0.8639201
91,Pinjarra Hills - Pullenvale,152.8785354,-27.52532265,1835268.322,-3256376.059,1,10,0.965517241,0.080645161,0.14516129,0.129032258,0.048387097,0.064516129,0.225806452,0.161290323,0,0.675367047,0.068515498,0.685823755
92,Chelmer - Graceville,152.9788104,-27.51777533,1845066.773,-3257027.609,1,10,0.968992248,0.044642857,0.035714286,0.089285714,0.008928571,0.035714286,0.151785714,0.035714286,0,0.787375415,0,0.906976744
93,Corinda,152.9837451,-27.54325598,1845123.152,-3259857.332,1,9,1,0.074074074,0.018518519,0.055555556,0,0,0.111111111,0.037037037,0,0.670391061,0.055865922,0.763796909
94,Indooroopilly,152.9798661,-27.50634541,1845356.855,-3255806.276,1,9,1,0.06875,0.04375,0.06875,0.01875,0.075,0.1375,0.06875,0,0.790780142,0.021276596,0.571038251
95,Sherwood,152.9811678,-27.53053127,1845084.127,-3258442.545,1,10,1,0.112903226,0.016129032,0.048387097,0,0.032258065,0.177419355,0.016129032,0,0.775471698,0.045283019,0.882882883
96,St Lucia,153.0049221,-27.49806428,1847910.943,-3255278.367,1,7,0.913705584,0.038834951,0.029126214,0.048543689,0.029126214,0.097087379,0.165048544,0.048543689,0,0.464849354,0,0.311336717
97,Taringa,152.9819527,-27.49349666,1845769.802,-3254446.561,1,9,1,0.056818182,0.022727273,0.011363636,0.011363636,0.022727273,0.079545455,0.022727273,0,0.711864407,0,0.605664488
98,Enoggera,152.9747976,-27.42716489,1846171.401,-3247163.774,1,8,1,0.089270605,0.100373968,0.095703178,0.049429396,0.080894062,0.205004172,0.118057267,0.078431373,1,0.083217753,1
99,Enoggera Reservoir,152.8705242,-27.43346352,1835999.473,-3246317.776,2,6,0.934196293,0.088264642,0.10301,0.076925732,0.022385166,0.044843496,0.174499718,0.096933081,0.016809716,0.712806668,0.024287484,0.834898033
100,Keperra,152.9522076,-27.41377024,1844210.449,-3245382.66,1,5,0.903225806,0.129032258,0.107526882,0.086021505,0.043010753,0.11827957,0.225806452,0.150537634,0.119815668,0.96977661,0.047306176,0.949308756
101,Mitchelton,152.970434,-27.41210713,1845997.921,-3245470.295,1,9,1,0.067307692,0.048076923,0.076923077,0.028846154,0.028846154,0.163461538,0.076923077,0.129032258,1,0.049079755,1
102,Mount Coot-tha,152.9485339,-27.47490383,1842850.584,-3251944.163,1,6,0.95065938,0.05932241,0.069357032,0.070604405,0.022932736,0.039943549,0.142240084,0.072696097,0.003756508,0.750696816,0.013597531,0.762415348
103,The Gap,152.9412489,-27.44590309,1842624.075,-3248699.079,1,10,0.961460446,0.090456903,0.094198691,0.076472332,0.030873486,0.062124767,0.181056023,0.10240456,0.016227181,0.73907979,0.027955737,0.861392833
104,Upper Kedron - Ferny Grove,152.9205767,-27.41434695,1841146.341,-3244981.274,1,10,0.954022989,0.056497175,0.033898305,0.04519774,0.02259887,0.04519774,0.107344633,0.06779661,0.034482759,0.913477537,0.054908486,1
105,Brisbane City,153.0230729,-27.46832562,1850153.156,-3252327.558,1,7,1,0.088691942,0.123181196,0.080037565,0.050444069,0.086223403,0.23469264,0.129301028,0,0.85,0,0.560386473
106,Fortitude Valley,153.0353231,-27.45633644,1851533.475,-3251210.718,1,7,0.867924528,0.084886512,0.061590598,0.080559323,0.025222034,0.070138728,0.184913888,0.105191054,0.150943396,0.845744681,0,0.603773585
107,Highgate Hill,153.0174851,-27.48753688,1849296.852,-3254324.044,1,7,0.904761905,0.097560976,0.024390244,0.048780488,0.024390244,0.097560976,0.195121951,0.073170732,0.071428571,0.87628866,0,0.619047619
108,Kangaroo Point,153.0367355,-27.47666622,1851334.019,-3253431.238,1,9,0.704225352,0.148148148,0.222222222,0.148148148,0.111111111,0.259259259,0.37037037,0.259259259,0,0.936758893,0,0.732394366
109,New Farm,153.0456474,-27.46642614,1852363.271,-3252454.575,1,9,1,0.082983796,0.030795299,0.080820202,0.012611017,0.062096391,0.160024511,0.093136068,0,0.975395431,0,0.906832298
110,South Brisbane,153.0198875,-27.47907571,1849668.317,-3253443.867,1,7,1,0.128490447,0.072522682,0.080405252,0.044744904,0.098639021,0.238173737,0.104846628,0,1,0.223255814,0.488888889
111,Spring Hill,153.0246065,-27.45946151,1850447.483,-3251391.014,1,4,1,0.100793597,0.075895919,0.090122462,0.048619496,0.102108997,0.227794327,0.133348736,0,0.60591133,0,0.288888889
112,West End,153.0058689,-27.48339805,1848244.148,-3253705.313,1,8,0.917808219,0.113025712,0.048456463,0.06459287,0.034567574,0.098099998,0.216647844,0.08900868,0.068493151,0.687378641,0.034951456,0.520547945
113,Balmoral,153.0675533,-27.45614905,1854647.483,-3251665.695,1,10,0.831168831,0.202702703,0.148648649,0.081081081,0.054054054,0.148648649,0.324324324,0.148648649,0.038961039,0.768361582,0,0.874458874
114,Bulimba,153.0592791,-27.44856344,1853974.29,-3250722.863,1,10,0.835978836,0.209302326,0.127906977,0.058139535,0.046511628,0.127906977,0.279069767,0.151162791,0.031746032,0.846036585,0.027439024,0.920634921
115,East Brisbane,153.0468442,-27.48391638,1852189.741,-3254364.664,1,9,1,0.107142857,0.089285714,0.053571429,0,0.071428571,0.214285714,0.071428571,0,1,0,0.985815603
116,Hawthorne,153.0592307,-27.46396477,1853714.94,-3252388.545,1,10,1,0.123287671,0.054794521,0.054794521,0.02739726,0.04109589,0.150684932,0.068493151,0.042857143,0.98136646,0,1
117,Morningside - Seven Hills,153.0764074,-27.46651873,1855330.439,-3252918.351,1,9,0.953216374,0.056603774,0.056603774,0.050314465,0.037735849,0.031446541,0.144654088,0.056603774,0.064327485,0.959302326,0.034883721,1
118,Norman Park,153.0629657,-27.48014822,1853807.752,-3254194.662,1,10,1,0.050505051,0.050505051,0.02020202,0,0.04040404,0.090909091,0.050505051,0.039800995,0.836415363,0.025604552,1
119,Albion,153.0444689,-27.43255558,1852809.191,-3248772.412,1,10,1,0.099187565,0.075554637,0.105373105,0.044109136,0.076195956,0.174833919,0.1063361,0,0.901734104,0,0.986666667
120,Alderley,153.0009996,-27.42562524,1848726.699,-3247382.361,1,10,1,0.066666667,0.083333333,0.066666667,0.05,0.05,0.15,0.083333333,0,0.855753647,0.05834684,0.977272727
121,Ascot,153.0661262,-27.42985525,1854944.687,-3248799.726,1,10,0.954954955,0.038461538,0,0.019230769,0,0,0.057692308,0,0,0.864935065,0,0.708708709
122,Clayfield,153.0544399,-27.41914915,1853993.45,-3247468.908,1,9,0.965811966,0.12195122,0.089430894,0.113821138,0.073170732,0.113821138,0.25203252,0.146341463,0.051282051,0.89671932,0,0.740740741
123,Grange,153.0152689,-27.42258905,1850154.526,-3247263.826,1,10,0.982035928,0.054054054,0.067567568,0.040540541,0.027027027,0.027027027,0.108108108,0.040540541,0,0.731707317,0,0.938123752
124,Hamilton (Qld),153.0618253,-27.43658857,1854418.112,-3249464.779,1,10,0.795698925,0.195121951,0.195121951,0.219512195,0.12195122,0.170731707,0.268292683,0.219512195,0,1,0,0.924731183
125,Hendra,153.0702547,-27.41774738,1855543.597,-3247550.651,1,10,0.970588235,0.06122449,0.020408163,0.020408163,0.040816327,0.020408163,0.081632653,0.06122449,0.044117647,0.866108787,0,0.921568627
126,Kelvin Grove - Herston,153.0168999,-27.4488686,1849878.401,-3250131.369,1,6,0.914572864,0.148514851,0.118811881,0.118811881,0.118811881,0.198019802,0.356435644,0.217821782,0.030150754,0.665236052,0.077253219,0.432160804
127,Newmarket,153.007811,-27.43529375,1849224.904,-3248528.752,1,9,1,0.1,0.02,0.02,0.02,0.04,0.16,0.02,0,1,0.054878049,1
128,Newstead - Bowen Hills,153.0406648,-27.4479241,1852188.048,-3250379.21,1,10,1,0.081081081,0,0.081081081,0,0.054054054,0.135135135,0.081081081,0,1,0.111627907,1
129,Wilston,153.0186271,-27.43474702,1850278.161,-3248628.797,1,10,0.991735537,0.073529412,0.014705882,0.029411765,0.029411765,0.044117647,0.117647059,0.044117647,0.066115702,0.811004785,0,0.947658402
130,Windsor,153.0301589,-27.43421371,1851400.283,-3248740.928,1,9,0.993939394,0.085948166,0.061643384,0.078073119,0.040797256,0.073631228,0.175529469,0.095773819,0.084848485,0.95979021,0.104895105,0.949494949
131,Wooloowin - Lutwyche,153.0406486,-27.41710248,1852695.655,-3247044.073,1,9,0.918454936,0.059322034,0.093220339,0.093220339,0.025423729,0.042372881,0.161016949,0.084745763,0.025751073,0.949693252,0,0.884120172
132,Ashgrove,152.9819092,-27.44427141,1846576.327,-3249119.324,1,10,1,0.046632124,0.03626943,0.041450777,0.025906736,0.031088083,0.113989637,0.046632124,0.013824885,0.80239521,0.011976048,0.923195084
133,Auchenflower,152.9951159,-27.47384027,1847363.962,-3252512.993,1,10,1,0.040816327,0.081632653,0.06122449,0.020408163,0.081632653,0.183673469,0.081632653,0,0.934718101,0,1
134,Bardon,152.9792351,-27.46098955,1846042.868,-3250889.081,1,10,1,0.038216561,0.044585987,0.01910828,0.025477707,0.01910828,0.082802548,0.044585987,0,0.797530864,0.014814815,0.921001927
135,Paddington - Milton,152.9997355,-27.46303437,1847987.953,-3251411.644,1,10,1,0.097560976,0.170731707,0.081300813,0.032520325,0.040650407,0.227642276,0.130081301,0,1,0.061302682,1
136,Red Hill (Qld),153.0020695,-27.45246754,1848387.446,-3250302.576,1,10,1,0.02,0.08,0.04,0,0.02,0.12,0.04,0,1,0.041284404,1
137,Toowong,152.9840324,-27.48146736,1846168.628,-3253175.431,1,10,0.723163842,0.032786885,0.081967213,0.147540984,0.049180328,0.049180328,0.196721311,0.114754098,0,0.924217463,0,0.873822976
138,Brinsmead,145.7155355,-16.89920574,1250295.586,-2008505.322,3,9,0.855345912,0.084745763,0.050847458,0.101694915,0.050847458,0.084745763,0.203389831,0.084745763,0.125786164,0.959107807,0,0.85115304
139,Clifton Beach - Kewarra Beach,145.6613385,-16.77456708,1245810.599,-1994187.708,3,7,0.851211073,0.1015625,0.0703125,0.0703125,0.0546875,0.0546875,0.203125,0.0859375,0.096885813,0.914597815,0.065541212,0.830449827
140,Freshwater - Stratford,145.7464746,-16.87844893,1253802.92,-2006519.225,3,8,0.864864865,0.024390244,0.073170732,0.097560976,0.024390244,0.024390244,0.170731707,0.073170732,0.072072072,0.659846547,0,0.618618619
141,Redlynch,145.6911539,-16.89470209,1247747.516,-2007765.191,3,9,0.875,0.115384615,0.054945055,0.071428571,0.027472527,0.06043956,0.208791209,0.071428571,0.116071429,0.766451613,0.019354839,0.802083333
142,Trinity Beach - Smithfield,145.6931036,-16.81472353,1248780.042,-1998943.044,3,7,0.797979798,0.12,0.075,0.07,0.045,0.04,0.2,0.085,0.121212121,1,0.052136133,0.865319865
143,Yorkeys Knob - Machans Beach,145.7262059,-16.83826207,1252061.475,-2001874.742,3,4,0.76119403,0.086206897,0.086206897,0.086206897,0.051724138,0.034482759,0.172413793,0.120689655,0.253731343,0.90712743,0,0.621890547
144,Bentley Park,145.7221832,-17.00830826,1249875.034,-2020628.877,3,4,0.74301676,0.114649682,0.076433121,0.108280255,0.076433121,0.076433121,0.248407643,0.089171975,0.357541899,0.808153477,0,0.702048417
145,Cairns City,145.7658497,-16.91457951,1255489.966,-2010706.165,3,4,0.632911392,0.121212121,0.106060606,0.121212121,0.106060606,0.121212121,0.272727273,0.136363636,0.329113924,0.829443447,0,0.341772152
146,Earlville - Bayview Heights,145.7284055,-16.95545037,1251083.274,-2014849.722,3,5,0.810344828,0.089108911,0.099009901,0.108910891,0.089108911,0.059405941,0.227722772,0.128712871,0.206896552,0.816502463,0.02955665,0.718390805
147,Edmonton,145.7407423,-17.01744225,1251753.577,-2021822.856,3,3,0.727735369,0.148514851,0.168316832,0.118811881,0.069306931,0.084158416,0.262376238,0.188118812,0.519083969,0.945985401,0.061313869,0.773536896
148,Gordonvale - Trinity,145.7872476,-17.05920559,1256263.226,-2026901.094,3,5,0.669090909,0.148148148,0.088888889,0.125925926,0.074074074,0.081481481,0.22962963,0.125925926,0.516363636,1,0.018927445,0.887272727
149,Kanimbla - Mooroobool,145.7266194,-16.92996204,1251156.921,-2012015.035,3,5,0.624203822,0.116652897,0.115902067,0.106122452,0.09647358,0.127453096,0.274084092,0.151657107,0.267515924,0.789617486,0.027322404,0.560509554
150,Lamb Range,145.6812763,-17.05269388,1245068.755,-2025127.059,3,6,0.734892408,0.117762203,0.111732804,0.094777618,0.09575611,0.091388433,0.251697724,0.129652715,0.334976646,0.842928423,0.030242788,0.741730014
151,Manoora,145.7366541,-16.91705908,1252358.011,-2010688.909,3,1,0.565445026,0.21978022,0.164835165,0.120879121,0.21978022,0.21978022,0.351648352,0.252747253,0.827225131,0.943113772,0,0.397905759
152,Manunda,145.7492025,-16.91720641,1253691.565,-2010830.308,3,1,0.666666667,0.090909091,0.121212121,0.106060606,0.166666667,0.181818182,0.333333333,0.212121212,0.927536232,0.927835052,0.037113402,0.396135266
153,Mount Sheridan,145.7321861,-16.98885978,1251139.708,-2018579.362,3,6,0.94980695,0.088,0.08,0.08,0.08,0.088,0.208,0.096,0.409266409,0.941176471,0.058823529,0.826254826
154,Westcourt - Bungalow,145.7625175,-16.94117216,1254859.552,-2013611.881,3,1,0.761904762,0.130434783,0.173913043,0.130434783,0.086956522,0.173913043,0.369565217,0.173913043,0.704761905,1,0,0.393650794
155,White Rock,145.7577797,-16.97853117,1253968.187,-2017693.108,3,2,0.794871795,0.145631068,0.155339806,0.145631068,0.174757282,0.184466019,0.310679612,0.194174757,0.641025641,0.859489051,0.065693431,0.602564103
156,Whitfield - Edge Hill,145.7360949,-16.90000338,1252475.082,-2008798.21,3,6,0.801687764,0.086206897,0.146551724,0.103448276,0.034482759,0.112068966,0.224137931,0.137931034,0.17721519,0.799519808,0,0.680731364
157,Woree,145.7458377,-16.95924533,1252898.058,-2015442.777,3,1,0.914728682,0.056338028,0.070422535,0.056338028,0.056338028,0.098591549,0.211267606,0.042253521,0.852713178,1,0.040723982,0.599483204
158,Babinda,145.9399069,-17.34970408,1269427.978,-2060513.144,3,4,0.685185185,0.116400187,0.097547669,0.087361134,0.077855201,0.105418715,0.220833108,0.12456472,0.203703704,0.74801061,0,0.691358025
159,Innisfail,146.0318292,-17.5216893,1277348.802,-2080421.906,3,1,0.456928839,0.157024793,0.082644628,0.074380165,0.049586777,0.132231405,0.256198347,0.123966942,0.644194757,0.775751073,0.019313305,0.541822722
160,Johnstone,145.9313559,-17.69046129,1264941.697,-2098019.862,3,4,0.643902439,0.121212121,0.101010101,0.070707071,0.050505051,0.070707071,0.181818182,0.111111111,0.234146341,0.941422594,0.025104603,0.946341463
161,Tully,145.9256849,-18.11952794,1259841.387,-2145250.137,3,3,0.575875486,0.153846154,0.145299145,0.111111111,0.11965812,0.145299145,0.264957265,0.188034188,0.225680934,0.9345898,0.019955654,0.861219196
162,Wooroonooran,145.8007505,-17.38024333,1254359.436,-2062486.581,3,6,0.656362815,0.135076478,0.128679847,0.09827126,0.0687904,0.096219999,0.242161139,0.133582258,0.274917057,0.890257134,0.018790113,0.83730366
163,Yarrabah,145.8971498,-16.99445342,1268620.805,-2020851.224,3,1,0.712121212,0.039215686,0.117647059,0.078431373,0.137254902,0.137254902,0.215686275,0.137254902,1,0.847965739,0,0.484848485
164,Daintree,145.2696126,-16.19170278,1209877.672,-1925843.495,3,3,0.69047619,0.142857143,0.05952381,0.071428571,0.107142857,0.178571429,0.297619048,0.154761905,0.535714286,0.847058824,0,0.75
165,Port Douglas,145.4843853,-16.58472888,1228883.767,-1971446.451,3,6,1,0.155555556,0.155555556,0.133333333,0.022222222,0.177777778,0.266666667,0.2,0.081632653,0.923753666,0,0.863945578
166,Atherton,145.4636414,-17.21590572,1220287.374,-2041022.298,3,3,0.734982332,0.21875,0.125,0.125,0.109375,0.1171875,0.34375,0.171875,0.240282686,0.909365559,0.054380665,0.909305065
167,Herberton,145.2783369,-18.03433614,1192488.781,-2129546.909,3,1,0.450704225,0.177777778,0.111111111,0.177777778,0.155555556,0.244444444,0.377777778,0.222222222,0.323943662,0.701612903,0,0.633802817
168,Kuranda,145.5656677,-16.8325202,1235027.415,-1999651.368,3,4,0.590909091,0.023809524,0.047619048,0,0.166666667,0.023809524,0.19047619,0.047619048,0.348484848,0.593548387,0.038709677,0.575757576
169,Malanda - Yungaburra,145.613103,-17.36784882,1234597.534,-2059260.209,3,5,0.627272727,0.154545455,0.227272727,0.109090909,0.072727273,0.127272727,0.336363636,0.172727273,0.145454545,0.871595331,0.031128405,0.824242424
170,Mareeba,145.4962242,-17.03787711,1225550.355,-2021670.855,3,2,0.731543624,0.178807947,0.158940397,0.119205298,0.205298013,0.185430464,0.331125828,0.225165563,0.463087248,0.896253602,0.017291066,0.747203579
171,Balonne,148.1173855,-28.3161505,1364990.304,-3281590.233,4,4,0.605263158,0.116666667,0.1,0.05,0.166666667,0.216666667,0.3,0.166666667,0.473684211,0.767175573,0,0.833333333
172,Chinchilla,150.6887704,-26.37008145,1640468.366,-3100915.017,3,4,0.661818182,0.196850394,0.118110236,0.062992126,0.086614173,0.11023622,0.299212598,0.149606299,0.283636364,0.985492228,0.074611399,0.989090909
173,Goondiwindi,150.3571421,-28.39788631,1579247.784,-3316711.635,3,5,0.752293578,0.14,0.14,0.07,0.1,0.13,0.25,0.17,0.23853211,0.857142857,0.023591088,0.963302752
174,Inglewood - Waggamba,150.3327387,-28.39929722,1576884.954,-3316558.382,3,3,0.558139535,0.111111111,0.074074074,0.037037037,0.037037037,0.037037037,0.185185185,0.074074074,0.139534884,0.782022472,0,0.868217054
175,Miles - Wandoan,149.9191459,-26.40259737,1564781.373,-3094629.154,3,4,0.649122807,0.119047619,0.071428571,0.142857143,0.166666667,0.095238095,0.261904762,0.166666667,0.192982456,1,0,0.953216374
176,Roma,148.8039673,-26.56315489,1453625.825,-3098677.905,3,5,0.780487805,0.210084034,0.092436975,0.134453782,0.117647059,0.168067227,0.327731092,0.176470588,0.331707317,1,0.050632911,1
177,Roma Region,148.2860833,-26.5413242,1403268.21,-3090418.09,4,5,0.87628866,0.154639175,0.134020619,0.134020619,0.06185567,0.092783505,0.288659794,0.12371134,0.175257732,0.852071006,0,0.989690722
178,Tara,150.1693644,-27.50386621,1573776.745,-3217303.338,3,1,0.611570248,0.161290323,0.14516129,0.112903226,0.112903226,0.080645161,0.274193548,0.177419355,0.347107438,0.627078385,0,0.760330579
179,Crows Nest - Rosalie,151.8954687,-27.13562058,1746418.035,-3200168.953,2,3,0.658333333,0.084033613,0.067226891,0.084033613,0.025210084,0.042016807,0.168067227,0.075630252,0.116666667,0.791366906,0.050359712,0.9
180,Jondaryan,151.4882698,-27.42989201,1702471.777,-3226470.97,2,3,0.822510823,0.150943396,0.132075472,0.150943396,0.160377358,0.160377358,0.283018868,0.226415094,0.285714286,0.951851852,0.051851852,0.911976912
181,Millmerran,151.120435,-27.85363574,1660588.172,-3267493.337,3,3,0.885714286,0.25,0.3,0.05,0.125,0.075,0.525,0.175,0.457142857,0.953389831,0,1
182,Pittsworth,151.5816068,-27.71455459,1707153.948,-3258592.912,2,5,0.752941176,0.151898734,0.126582278,0.151898734,0.101265823,0.126582278,0.240506329,0.164556962,0.094117647,0.887394958,0.030252101,0.941176471
183,Wambo,151.1734533,-27.03282806,1677937.669,-3179190.964,2,4,0.862254025,0.095890411,0.068493151,0.054794521,0.132420091,0.109589041,0.242009132,0.105022831,0.175313059,0.870123203,0.055441478,0.888491354
184,Clifton - Greenmount,151.9131788,-27.86713703,1736760.185,-3279672.371,2,5,0.700854701,0.194029851,0.119402985,0.119402985,0.014925373,0.119402985,0.313432836,0.164179104,0.153846154,0.997572816,0,1
185,Southern Downs - East,152.230788,-28.22445914,1761684.457,-3322807.744,2,4,0.563636364,0.0625,0.0625,0.083333333,0.125,0.125,0.229166667,0.083333333,0.127272727,0.781578947,0.047368421,0.842424242
186,Southern Downs - West,151.8219587,-28.18024337,1723130.789,-3312348.198,2,3,0.543859649,0.083333333,0.083333333,0.104166667,0.083333333,0.104166667,0.229166667,0.125,0.315789474,0.841836735,0,0.877192982
187,Stanthorpe,151.9376157,-28.65990199,1726766.276,-3365925.869,3,2,0.644736842,0.132075472,0.245283019,0.075471698,0.075471698,0.132075472,0.283018868,0.226415094,0.184210526,0.72972973,0,0.657894737
188,Stanthorpe Region,151.7233294,-28.73938062,1705052.312,-3371616.57,3,3,0.597014925,0.25,0.289473684,0.25,0.131578947,0.197368421,0.434210526,0.276315789,0.089552239,0.963123644,0.039045553,1
189,Warwick,152.0059799,-28.2324712,1739985.259,-3320543.85,2,2,0.686915888,0.13592233,0.121359223,0.077669903,0.116504854,0.097087379,0.266990291,0.150485437,0.369158879,0.95554081,0.02388852,0.908099688
190,Central Highlands - East,149.3280566,-23.92157175,1540024.423,-2817776.767,3,2,0.668965517,0.151260504,0.226890756,0.168067227,0.134453782,0.100840336,0.31092437,0.176470588,0.537931034,0.990118577,0.035573123,1
191,Central Highlands - West,148.0169555,-24.07647185,1406980.307,-2819259.649,4,5,0.810218978,0.045045045,0.063063063,0.036036036,0.072072072,0.045045045,0.135135135,0.063063063,0.145985401,0.884375,0.01875,1
192,Emerald,148.162555,-23.53548751,1428200.072,-2761993.507,3,6,0.831119545,0.078838174,0.145228216,0.124481328,0.082987552,0.070539419,0.244813278,0.149377593,0.159392789,0.893651655,0.042322301,1
193,Berserker,150.5307734,-23.37345589,1668069.255,-2773538.791,2,1,0.674157303,0.134831461,0.146067416,0.123595506,0.078651685,0.101123596,0.292134831,0.168539326,0.370786517,1,0.04784689,0.97752809
194,Bouldercombe,150.6256281,-23.62785626,1673906.761,-2802442.425,2,4,0.444444444,0.181818182,0.181818182,0.151515152,0.090909091,0.242424242,0.333333333,0.212121212,0.296296296,0.914438503,0,0.864197531
195,Emu Park,150.7974937,-23.25889952,1696497.623,-2764660.734,2,3,0.44137931,0.114754098,0.049180328,0.016393443,0.016393443,0.049180328,0.163934426,0.049180328,0.151724138,1,0.035573123,0.813793103
196,Frenchville - Mount Archer,150.573873,-23.33041351,1673013.58,-2769434.05,2,6,0.657243816,0.140740741,0.17037037,0.125925926,0.096296296,0.125925926,0.251851852,0.185185185,0.303886926,0.817904374,0.024415056,0.930506478
197,Glenlee - Rockyview,150.4582182,-23.23160586,1662820.729,-2757159.901,2,9,0.638888889,0.137931034,0.068965517,0.086206897,0.068965517,0.051724138,0.224137931,0.120689655,0.041666667,0.766467066,0,0.763888889
198,Gracemere,150.4120135,-23.48781325,1654521.595,-2784396.823,2,4,0.699570815,0.150442478,0.185840708,0.168141593,0.123893805,0.150442478,0.362831858,0.203539823,0.360515021,1,0.077681874,0.949928469
199,Lakes Creek,150.5651118,-23.3686257,1671583.756,-2773470.137,2,2,0.574850299,0.173333333,0.133333333,0.08,0.106666667,0.16,0.333333333,0.146666667,0.479041916,0.873096447,0.030456853,0.806387226
200,Mount Morgan,150.39471,-23.72083335,1649464.852,-2809490.826,2,1,0.8,0.2,0.1,0.05,0.05,0.1,0.25,0.1,0.618181818,1,0.095238095,0.727272727
201,Norman Gardens,150.5538977,-23.30201499,1671417.811,-2766081.951,2,5,0.705084746,0.157534247,0.143835616,0.102739726,0.109589041,0.130136986,0.328767123,0.143835616,0.338983051,0.994134897,0.064516129,0.870056497
202,Park Avenue,150.5119351,-23.35769615,1666405.644,-2771576.137,2,2,0.640522876,0.1875,0.1875,0.109375,0.15625,0.171875,0.375,0.1875,0.300653595,0.909090909,0.125,0.793028322
203,Parkhurst - Kawana,150.5051054,-23.31395815,1666348.275,-2766732.022,2,3,0.706422018,0.14159292,0.185840708,0.123893805,0.150442478,0.212389381,0.371681416,0.274336283,0.23853211,1,0.079681275,0.877675841
204,Rockhampton - West,150.4709585,-23.39785836,1661718.585,-2775398.373,2,3,0.705882353,0.128571429,0.142857143,0.085714286,0.142857143,0.085714286,0.285714286,0.171428571,0.294117647,0.717821782,0.079207921,0.803921569
205,Rockhampton City,150.5379288,-23.41652269,1668167.639,-2778313.974,2,1,0.461538462,0.321428571,0.392857143,0.25,0.25,0.214285714,0.535714286,0.357142857,0.153846154,0.739130435,0,0.555555556
206,Rockhampton Region - East,150.7056121,-23.36622789,1685713.213,-2775086.308,2,5,0.530120482,0.044444444,0.066666667,0.044444444,0.044444444,0.022222222,0.111111111,0.066666667,0.120481928,1,0.102389078,1
207,Rockhampton Region - North,150.0188742,-22.79623662,1624745.892,-2704066.743,2,5,0.552380952,0.159090909,0.113636364,0,0.022727273,0.090909091,0.295454545,0.090909091,0.057142857,0.712707182,0,0.819047619
208,Rockhampton Region - West,150.0497101,-23.35382025,1620068.992,-2765110.888,2,6,0.632911392,0.027027027,0.054054054,0.054054054,0.027027027,0.027027027,0.162162162,0.027027027,0.202531646,0.920577617,0.151624549,0.911392405
209,Shoalwater Bay,150.4597116,-22.62839299,1671610.895,-2691589.048,3,6,0.552380952,0.159090909,0.113636364,0,0.022727273,0.090909091,0.295454545,0.090909091,0.057142857,0.712707182,0,0.819047619
210,The Range - Allenstown,150.4993614,-23.39281863,1664639.949,-2775226.557,2,5,0.462427746,0.202247191,0.134831461,0.146067416,0.123595506,0.06741573,0.314606742,0.168539326,0.265895954,0.874794069,0.029654036,0.820809249
211,Yeppoon,150.7374876,-23.15479929,1691988.764,-2752539.502,2,5,0.808695652,0.126696833,0.085972851,0.07239819,0.049773756,0.067873303,0.253393665,0.090497738,0.173913043,0.926662523,0.055935364,0.920289855
212,Banana,149.9409976,-24.93315967,1587266.327,-2935344.408,3,5,0.593984962,0.077586207,0.034482759,0.034482759,0.060344828,0.051724138,0.129310345,0.060344828,0.165413534,0.899350649,0,1
213,Biloela,150.5164736,-24.39807248,1651921.83,-2884651.106,3,5,0.855813953,0.111111111,0.100529101,0.084656085,0.084656085,0.100529101,0.238095238,0.105820106,0.130232558,0.78968254,0.031746032,0.902325581
214,Agnes Water - Miriam Vale,151.7049091,-24.39456341,1770078.317,-2900450.851,3,2,0.5,0.161764706,0.132352941,0.117647059,0.176470588,0.161764706,0.294117647,0.176470588,0.058823529,0.78125,0,0.818627451
215,Boyne Island - Tannum Sands,151.3608029,-23.9735851,1742247.523,-2849973.843,2,6,0.681818182,0.104938272,0.117283951,0.098765432,0.074074074,0.117283951,0.234567901,0.154320988,0.130681818,0.790996785,0.028938907,0.924242424
216,Callemondah,151.2065902,-23.83972943,1728870.567,-2833316.088,2,6,0.80808131,0.115290076,0.109226527,0.121582689,0.104083742,0.08838026,0.259463104,0.147583914,0.161617418,0.962017014,0.025305688,0.907397857
217,Clinton - New Auckland,151.2231683,-23.88713538,1729816.186,-2838689.997,2,5,0.794466403,0.109704641,0.126582278,0.147679325,0.139240506,0.101265823,0.286919831,0.168776371,0.150197628,0.979318055,0.06372275,0.984189723
218,Gladstone,151.2611382,-23.85194269,1734133.715,-2835393.36,2,2,1,0.110503282,0.105032823,0.110503282,0.101750547,0.089715536,0.246170678,0.13785558,0.19858156,1,0,0.822695035
219,Gladstone Hinterland,151.0739154,-24.0574536,1712391.174,-2855133.174,2,5,0.712195122,0.074285714,0.057142857,0.08,0.045714286,0.051428571,0.171428571,0.08,0.156097561,0.86875,0.0375,0.996747967
220,Kin Kora - Sun Valley,151.2507011,-23.87640976,1732724.898,-2837905.105,2,5,0.836363636,0.137254902,0.117647059,0.117647059,0.137254902,0.078431373,0.254901961,0.137254902,0.054545455,0.892950392,0.093994778,0.975757576
221,South Trees,151.2957823,-23.88205379,1737139.588,-2839140.062,2,6,0.822209436,0.10590476,0.104408621,0.103847147,0.077547601,0.084151344,0.224640133,0.135270977,0.168826189,0.878248928,0.038492456,0.868294671
222,Telina - Toolooa,151.2687193,-23.9126287,1733979.705,-2842084.792,2,5,0.784810127,0.102272727,0.090909091,0.102272727,0.056818182,0.045454545,0.193181818,0.113636364,0.17721519,0.84375,0.086538462,0.857946554
223,West Gladstone,151.2465597,-23.85838465,1732581.735,-2835891.513,2,2,0.725663717,0.166666667,0.148148148,0.148148148,0.12962963,0.111111111,0.333333333,0.203703704,0.14159292,1,0,0.825958702
224,Broadbeach Waters,153.4149232,-28.02696489,1878553.63,-3318578.075,1,9,0.989473684,0.015625,0.0625,0.0625,0.03125,0.015625,0.078125,0.0625,0.042105263,0.71040724,0,0.778947368
225,Burleigh Heads,153.4351667,-28.10239142,1879224.783,-3327039.756,1,7,0.95483871,0.019607843,0.196078431,0.117647059,0.098039216,0.019607843,0.215686275,0.137254902,0,0.992565056,0.033457249,1
226,Burleigh Waters,153.4322309,-28.08729953,1879197.642,-3325363.335,1,7,1,0.108695652,0.130434783,0.108695652,0.038043478,0.092391304,0.244565217,0.135869565,0.079012346,0.875,0.029661017,1
227,Mermaid Beach - Broadbeach,153.4341089,-28.03793311,1880210.24,-3320051.428,1,7,1,0.075757576,0.121212121,0.045454545,0.045454545,0.060606061,0.196969697,0.090909091,0.046511628,1,0,1
228,Mermaid Waters,153.4214968,-28.04982257,1878799.423,-3321148.893,1,6,1,0.05,0.107142857,0.078571429,0.057142857,0.057142857,0.207142857,0.114285714,0.105660377,1,0.019823789,1
229,Miami,153.4358514,-28.06821315,1879866.837,-3323352.885,1,7,1,0.018518519,0.092592593,0.037037037,0.055555556,0.037037037,0.12962963,0.055555556,0.098591549,0.939759036,0.036144578,1
230,Coolangatta,153.5336987,-28.16973986,1887533.917,-3335801.308,1,4,0.8,0.060344828,0.070689655,0.055172414,0.034482759,0.060344828,0.156896552,0.072413793,0.2,1,0,0.838095238
231,Currumbin - Tugun,153.4941897,-28.14953374,1884088.663,-3333022.855,1,6,0.992805755,0.050359712,0.064748201,0.035971223,0.014388489,0.043165468,0.115107914,0.064748201,0.143884892,0.931464174,0.018691589,0.923261391
232,Currumbin Waters,153.4627,-28.15427175,1880989.603,-3333063.649,1,6,0.992125984,0.063063063,0.045045045,0.063063063,0.018018018,0.036036036,0.144144144,0.054054054,0.047244094,0.843225084,0.020156775,0.881889764
233,Elanora,153.4491773,-28.13583227,1880004.327,-3330866.674,1,7,0.905882353,0.098684211,0.078947368,0.052631579,0.046052632,0.072368421,0.197368421,0.085526316,0.064705882,0.861111111,0.04040404,0.890196078
234,Palm Beach,153.4631022,-28.11598054,1881674.813,-3328927.705,1,5,1,0.04,0.086666667,0.073333333,0.046666667,0.08,0.173333333,0.08,0.071625344,0.944006309,0.023659306,1
235,Arundel,153.3629053,-27.93763845,1875061.145,-3308138.523,1,6,1,0.099236641,0.106870229,0.06870229,0.106870229,0.114503817,0.259541985,0.129770992,0.051851852,0.817047817,0.037422037,0.716049383
236,Biggera Waters,153.3914441,-27.92979817,1877934.742,-3307716.557,1,4,1,0.115384615,0.153846154,0.08974359,0.166666667,0.217948718,0.397435897,0.192307692,0.042553191,1,0.036511156,0.799054374
237,Coombabah,153.3709646,-27.91068902,1876288.344,-3305343.601,1,3,1,0.125,0.105769231,0.115384615,0.067307692,0.134615385,0.278846154,0.125,0.109375,0.870100784,0.020156775,0.75
238,Labrador,153.3978786,-27.9462023,1878276.837,-3309587.157,1,2,0.972826087,0.063583815,0.069364162,0.121387283,0.063583815,0.057803468,0.213872832,0.092485549,0.114130435,0.901397516,0.069875776,0.65942029
239,Paradise Point - Hollywell,153.3953216,-27.88511278,1879059.23,-3302940.938,1,8,1,0.05952381,0.05952381,0.047619048,0.011904762,0.023809524,0.154761905,0.023809524,0,0.943548387,0,0.965909091
240,Runaway Bay,153.3977471,-27.91386205,1878808.498,-3306086.964,1,7,0.95,0.089552239,0.208955224,0.089552239,0.164179104,0.164179104,0.328358209,0.194029851,0.0625,0.777777778,0.074074074,0.733333333
241,Guanaba - Springbrook,153.2552798,-28.11526563,1861753.016,-3325755.113,2,7,0.910714286,0.173913043,0.130434783,0.065217391,0.043478261,0.108695652,0.239130435,0.152173913,0.160714286,0.829457364,0,1
242,Tamborine - Canungra,153.1493037,-28.09562612,1851912.416,-3322064.219,1,7,0.777777778,0.08045977,0.08045977,0.086206897,0.040229885,0.08045977,0.189655172,0.103448276,0.055555556,0.719242902,0.014195584,0.818518519
243,Currumbin Valley - Tallebudgera,153.3789836,-28.18875862,1872383.203,-3335544.191,1,9,0.777777778,0.110091743,0.110091743,0.055045872,0.027522936,0.091743119,0.220183486,0.091743119,0.055555556,0.744966443,0,0.858024691
244,Mudgeeraba - Bonogin,153.3506053,-28.12109789,1870799.136,-3327801.737,1,8,1,0.084870849,0.077490775,0.077490775,0.044280443,0.036900369,0.188191882,0.066420664,0.048387097,0.755215577,0.022253129,0.879569892
245,Reedy Creek - Andrews,153.401873,-28.11347412,1875844.608,-3327741.214,1,9,1,0.044776119,0.074626866,0.037313433,0.02238806,0.02238806,0.141791045,0.052238806,0.076923077,0.874749499,0.06012024,0.939393939
246,Carrara,153.3663425,-28.02150624,1873982.083,-3317262.278,1,7,1,0.122137405,0.06870229,0.083969466,0.038167939,0.061068702,0.236641221,0.076335878,0.105263158,0.909005629,0.016885553,0.912280702
247,Highland Park,153.3354809,-28.01566214,1871117.434,-3316170.216,1,6,0.958333333,0.055555556,0.122222222,0.1,0.044444444,0.077777778,0.177777778,0.133333333,0.066666667,0.879807692,0.021634615,0.902777778
248,Nerang - Mount Nathan,153.3002967,-27.99015765,1868166.573,-3312887.613,1,4,1,0.147286822,0.127906977,0.158914729,0.058139535,0.108527132,0.282945736,0.158914729,0.097972973,0.971442401,0.043562439,0.940315315
249,Pacific Pines - Gaven,153.3231526,-27.94723299,1871081.138,-3308583.94,1,7,1,0.054711246,0.094224924,0.082066869,0.060790274,0.069908815,0.203647416,0.100303951,0.062407132,0.896946565,0.043256997,0.881624567
250,Worongary - Tallai,153.331558,-28.05325017,1870110.313,-3320178.197,1,8,0.920792079,0.065789474,0.065789474,0.065789474,0.052631579,0.065789474,0.171052632,0.078947368,0.079207921,0.752161383,0.060518732,0.825082508
251,Coomera,153.3396498,-27.84692624,1874349.097,-3297978.895,1,6,1,0.129449838,0.155339806,0.093851133,0.116504854,0.1197411,0.284789644,0.155339806,0.090604027,0.854066986,0.060287081,0.851230425
252,Helensvale,153.3374044,-27.90088746,1873227.839,-3303782.674,1,8,1,0.085,0.085,0.07,0.02,0.05,0.13,0.09,0.051813472,0.847006652,0.075388027,0.868739206
253,Hope Island,153.3971348,-27.84053634,1879983.68,-3298146.359,1,9,1,0.073170732,0.105691057,0.073170732,0.040650407,0.073170732,0.195121951,0.073170732,0.025974026,0.808118081,0.036900369,0.871572872
254,Jacobs Well - Alberton,153.3385709,-27.74815866,1875902.514,-3287278.906,1,6,0.87804878,0.048780488,0.097560976,0.097560976,0.048780488,0.024390244,0.170731707,0.097560976,0.073170732,0.940140845,0,1
255,Ormeau - Yatala,153.230046,-27.76802227,1865126.364,-3287812.404,1,8,0.958611482,0.115281501,0.077747989,0.117962466,0.058981233,0.056300268,0.227882038,0.101876676,0.074766355,0.923696319,0.055214724,1
256,Oxenford - Maudsland,153.2917103,-27.9205714,1868506.804,-3305231.831,1,7,0.994371482,0.082608696,0.104347826,0.104347826,0.082608696,0.060869565,0.217391304,0.134782609,0.048780488,0.891280947,0.074273412,0.969355847
257,Pimpama,153.3140218,-27.81294144,1872454.392,-3293920.552,1,5,1,0.139880952,0.172619048,0.110119048,0.148809524,0.119047619,0.321428571,0.175595238,0.163855422,1,0.069152542,1
258,Upper Coomera - Willow Vale,153.2414942,-27.86105641,1864674.845,-3298047.322,1,7,1,0.115569823,0.141252006,0.110754414,0.070626003,0.115569823,0.258426966,0.147672552,0.092592593,0.909694555,0.06374502,0.972222222
259,Clear Island Waters,153.397303,-28.04195698,1876609.971,-3319936.559,1,9,1,0.076923077,0.038461538,0.038461538,0.038461538,0.038461538,0.153846154,0.038461538,0,0.696,0,0.676056338
260,Merrimac,153.3730804,-28.05084727,1874135.69,-3320536.807,1,5,1,0.068965517,0.091954023,0.16091954,0.091954023,0.068965517,0.264367816,0.137931034,0.038095238,0.805970149,0.024423338,0.784126984
261,Robina,153.3931901,-28.07078411,1875730.156,-3322993.545,1,8,1,0.092657343,0.076923077,0.090909091,0.047202797,0.050699301,0.188811189,0.090909091,0.028119508,0.867905575,0.021094927,0.818980668
262,Varsity Lakes,153.4110643,-28.08888176,1877140.39,-3325218.153,1,6,0.993071594,0.099056604,0.075471698,0.061320755,0.04245283,0.051886792,0.16509434,0.080188679,0.073903002,0.78978389,0.023575639,0.685142417
263,Ashmore,153.3763736,-27.98879161,1875495.049,-3313872.974,1,6,1,0.074380165,0.082644628,0.082644628,0.041322314,0.090909091,0.173553719,0.107438017,0.074074074,0.746383799,0.06364513,0.80359147
264,Molendinar,153.360707,-27.97402242,1874238.755,-3312041.58,1,5,0.883116883,0.157142857,0.085714286,0.085714286,0.042857143,0.1,0.242857143,0.085714286,0.038961039,0.88700565,0.033898305,0.718614719
265,Parkwood,153.3629542,-27.95458662,1874781.107,-3309972.618,1,7,1,0.104166667,0.114583333,0.072916667,0.041666667,0.09375,0.197916667,0.104166667,0.133928571,0.761597938,0.06185567,0.770833333
266,Southport - North,153.3961116,-27.96513841,1877788.425,-3311609.082,1,2,0.958525346,0.097087379,0.087378641,0.087378641,0.106796117,0.126213592,0.223300971,0.126213592,0.101382488,1,0.079051383,0.556067588
267,Southport - South,153.405028,-27.98362703,1878333.482,-3313742.263,1,4,1,0.1,0.1,0.057142857,0.057142857,0.142857143,0.228571429,0.107142857,0.074534161,0.944297082,0.021220159,0.629399586
268,Benowa,153.3858313,-28.00769615,1876085.24,-3316059.133,1,8,1,0.083333333,0.052083333,0.072916667,0.03125,0.104166667,0.229166667,0.052083333,0,0.681818182,0.022727273,0.609865471
269,Bundall,153.4048039,-28.01111624,1877849.135,-3316712.461,1,9,1,0,0.070175439,0.052631579,0.052631579,0.052631579,0.140350877,0.070175439,0,0.740554156,0,0.701449275
270,Main Beach,153.4259154,-27.95641404,1880797.849,-3311111.063,1,9,0.826086957,0.083032491,0.075812274,0.061371841,0.068592058,0.111913357,0.220216606,0.090252708,0,0.938650307,0,0.768115942
271,Surfers Paradise,153.4232816,-28.00258281,1879766.83,-3316065.64,1,4,0.996309963,0.083032491,0.075812274,0.061371841,0.068592058,0.111913357,0.220216606,0.090252708,0.073800738,0.932984293,0.037696335,0.437884379
272,Darra - Sumner,152.9479922,-27.56760404,1841274.25,-3261967.732,1,3,0.788321168,0.138888889,0.111111111,0.125,0.125,0.152777778,0.305555556,0.152777778,0.087591241,1,0.037894737,0.666666667
273,Durack,152.9855848,-27.58908961,1844545.564,-3264844.043,1,2,0.727272727,0.116071429,0.151785714,0.071428571,0.071428571,0.125,0.285714286,0.142857143,0.045454545,0.930354796,0.047306176,0.290909091
274,Forest Lake - Doolandella,152.9657047,-27.61800608,1842152.949,-3267681.591,1,6,0.839207048,0.122807018,0.135964912,0.105263158,0.096491228,0.10745614,0.280701754,0.149122807,0.072687225,0.897054165,0.06271777,0.591776799
275,Inala - Richlands,152.9628963,-27.59176944,1842313.934,-3264801.226,1,1,0.699658703,0.134146341,0.18597561,0.131097561,0.18902439,0.228658537,0.420731707,0.240853659,0.174061433,0.910425844,0.049926579,0.189988623
276,Oxley (Qld),152.9758766,-27.56162734,1844061.716,-3261729.827,1,8,1,0.116666667,0.05,0.083333333,0.05,0.091666667,0.216666667,0.1,0.071146245,1,0.020338983,0.93544137
277,Wacol,152.9219648,-27.58861731,1838419.18,-3263860.699,1,1,0.74,0.295454545,0.181818182,0.181818182,0.159090909,0.159090909,0.386363636,0.295454545,0.38,0.722063037,0.103151862,0.406666667
278,Boonah,152.6125149,-27.99423454,1802023.654,-3303285.605,2,5,0.721428571,0.098591549,0.035211268,0.035211268,0.035211268,0.035211268,0.133802817,0.070422535,0.078571429,0.891640867,0.105263158,0.980952381
279,Esk,152.4382851,-27.20692244,1797875.597,-3215545.946,2,2,0.625,0.087719298,0.035087719,0.070175439,0.052631579,0.01754386,0.192982456,0.070175439,0.214285714,0.818181818,0,0.892857143
280,Lake Manchester - England Creek,152.7639051,-27.41428209,1826015.743,-3242688.369,2,6,0.809373355,0.099356138,0.107645883,0.086536125,0.038914675,0.047844021,0.209227339,0.105522231,0.06842787,0.686071426,0.012749605,0.816190895
281,Lockyer Valley - East,152.3794039,-27.64337584,1785213.587,-3261966.478,2,3,0.757575758,0.164750958,0.164750958,0.137931034,0.134099617,0.111111111,0.32183908,0.195402299,0.174242424,0.93638814,0.058221024,0.938131313
282,Lowood,152.5769683,-27.44149392,1807518.619,-3242931.544,2,2,0.668049793,0.122120777,0.108877297,0.107620808,0.08510043,0.066366354,0.257498406,0.13382871,0.124481328,0.785330736,0.035336118,0.870484445
283,Rosewood,152.5792303,-27.68157132,1803866.262,-3268955.715,2,4,0.638436482,0.207792208,0.12987013,0.12987013,0.149350649,0.103896104,0.376623377,0.188311688,0.169381107,0.823584906,0.045283019,0.892508143
284,Brassall,152.7363544,-27.59011064,1820495.858,-3261320.304,1,3,0.782352941,0.177777778,0.177777778,0.127777778,0.094444444,0.133333333,0.327777778,0.194444444,0.252941176,1,0.066157761,1
285,Bundamba,152.8112478,-27.60747967,1827434.94,-3264287.306,1,2,0.814516129,0.213235294,0.227941176,0.132352941,0.125,0.161764706,0.411764706,0.25,0.25,1,0.027428571,0.819892473
286,Churchill - Yamanto,152.7423705,-27.6499188,1820103.332,-3267881.358,1,5,0.956140351,0.103773585,0.075471698,0.150943396,0.075471698,0.075471698,0.29245283,0.132075472,0.131578947,1,0.060377358,1
287,Ipswich - Central,152.7546438,-27.61707271,1821820.924,-3264503.808,1,2,0.772727273,0.128571429,0.171428571,0.128571429,0.128571429,0.114285714,0.271428571,0.214285714,0.159090909,0.83788122,0.038523274,0.818181818
288,Ipswich - East,152.7839775,-27.61177018,1824735.582,-3264355.441,1,2,0.764925373,0.175510204,0.216326531,0.130612245,0.179591837,0.204081633,0.379591837,0.244897959,0.25,0.9184,0.08,0.814676617
289,Ipswich - North,152.7354725,-27.54645357,1821120.575,-3256581.931,1,8,0.863013699,0.060606061,0.090909091,0.121212121,0.060606061,0.03030303,0.181818182,0.106060606,0.04109589,0.747058824,0.070588235,0.808219178
290,Karalee - Barellan Point,152.8289225,-27.5629898,1829866.007,-3259729.215,1,9,0.852631579,0.03125,0.020833333,0.03125,0.010416667,0,0.0625,0.020833333,0.031578947,0.745508982,0.035928144,0.912280702
291,Karana Downs,152.7932249,-27.51964955,1827129.471,-3254518.976,1,10,0.807692308,0.1125,0.125,0.1,0.075,0.0875,0.2625,0.1375,0.038461538,0.700699301,0.025174825,0.875
292,Leichhardt - One Mile,152.71621,-27.60555415,1818302.223,-3262700.356,1,1,0.732394366,0.161490683,0.285714286,0.180124224,0.130434783,0.260869565,0.428571429,0.310559006,0.302816901,0.933534743,0.060422961,0.692488263
293,North Ipswich - Tivoli,152.7727104,-27.59063723,1823993.472,-3261904.467,1,2,0.85106383,0.2125,0.1625,0.175,0.125,0.1375,0.375,0.2,0.244680851,1,0.035874439,1
294,Raceview,152.7727581,-27.64373185,1823133.148,-3267652.135,1,4,0.932038835,0.160714286,0.138392857,0.084821429,0.066964286,0.125,0.308035714,0.15625,0.182524272,0.990016639,0.079866889,1
295,Ripley,152.8148732,-27.69951119,1826281.925,-3274301.149,1,9,0.898550725,0.131386861,0.102189781,0.124087591,0.094890511,0.109489051,0.262773723,0.153284672,0.057971014,1,0,1
296,Riverview,152.8416201,-27.59145258,1830625.403,-3262994.692,1,1,0.775510204,0.111111111,0.133333333,0.133333333,0.177777778,0.2,0.377777778,0.177777778,0.326530612,0.877192982,0.052631579,0.523809524
297,Bellbird Park - Brookwater,152.8871398,-27.65149575,1834030.689,-3270156.765,1,8,0.983546618,0.108626198,0.086261981,0.092651757,0.044728435,0.089456869,0.204472843,0.111821086,0.095063985,1,0.034718569,0.931139549
298,Camira - Gailes,152.9197852,-27.63120002,1837509.943,-3268437.155,1,4,0.762645914,0.1015625,0.125,0.109375,0.046875,0.1484375,0.2109375,0.1484375,0.163424125,1,0.066592675,0.900129702
299,Carole Park,152.9295956,-27.62124845,1838618.975,-3267503.673,1,6,0.780617654,0.173274688,0.147594365,0.132152113,0.100819046,0.138328183,0.29266763,0.197671617,0.20537045,0.873039068,0.077487436,0.632857722
300,Collingwood Park - Redbank,152.864531,-27.6119279,1832499.493,-3265544.631,1,3,0.798798799,0.155844156,0.12987013,0.162337662,0.097402597,0.136363636,0.285714286,0.194805195,0.15015015,0.79880137,0.077054795,0.692692693
301,Goodna,152.8924992,-27.61172692,1835199.134,-3265931.003,1,1,0.744186047,0.18556701,0.18556701,0.128865979,0.134020619,0.164948454,0.329896907,0.201030928,0.172093023,0.924313463,0.064300067,0.47751938
302,New Chum,152.8326576,-27.61795248,1829328.087,-3265732.307,1,6,0.830680913,0.157793067,0.156483648,0.140051935,0.12240599,0.145305155,0.338951128,0.195719338,0.188509303,0.93519887,0.047788485,0.751936035
303,Redbank Plains,152.8504319,-27.65130317,1830496.122,-3269600.727,1,2,0.866028708,0.177387914,0.189083821,0.148148148,0.116959064,0.118908382,0.356725146,0.202729045,0.157894737,1,0.08182748,0.723285486
304,Springfield,152.9101493,-27.6525469,1836230.891,-3270606.525,1,7,0.80866426,0.140495868,0.181818182,0.181818182,0.049586777,0.157024793,0.363636364,0.214876033,0.050541516,0.888198758,0.01863354,0.803850782
305,Springfield Lakes,152.905029,-27.68536531,1835199.084,-3274083.484,1,8,0.842900302,0.123324397,0.09919571,0.091152815,0.056300268,0.085790885,0.249329759,0.109919571,0.090634441,1,0.051724138,0.882175227
306,Beaudesert,152.9193223,-28.13760208,1829151.202,-3323238.899,2,2,0.634032634,0.142857143,0.178571429,0.125,0.125,0.130952381,0.333333333,0.18452381,0.223776224,0.727634195,0.06361829,0.699300699
307,Beenleigh,153.1935626,-27.71510602,1862496.646,-3281546.48,1,1,0.792626728,0.177664975,0.123519459,0.120135364,0.10998308,0.104906937,0.318104907,0.169204738,0.377880184,1,0.023809524,0.786482335
308,Eagleby,153.2192789,-27.69858768,1865248.067,-3280140.829,1,1,0.886310905,0.23857868,0.182741117,0.203045685,0.16751269,0.152284264,0.436548223,0.258883249,0.19025522,0.977572559,0.063324538,0.634184068
309,Edens Landing - Holmview,153.1700207,-27.7105415,1860305.873,-3280703.95,1,4,0.848708487,0.161764706,0.125,0.058823529,0.110294118,0.088235294,0.308823529,0.147058824,0.162361624,0.951743724,0.030807514,0.884956867
310,Mount Warren Park,153.2054393,-27.73102977,1863374.809,-3283445.296,1,4,0.947368421,0.157894737,0.052631579,0.105263158,0.065789474,0.092105263,0.263157895,0.105263158,0.035087719,0.846410684,0.030050083,0.877192982
311,Wolffdene - Bahrs Scrub,153.1752975,-27.75975579,1859995.168,-3286106.642,1,8,0.787234043,0.144444444,0.055555556,0.055555556,0.033333333,0.033333333,0.2,0.066666667,0.063829787,0.884792627,0.02764977,0.911347518
312,Boronia Heights - Park Ridge,153.0408463,-27.70507338,1847957.211,-3278206.485,1,3,0.919354839,0.159574468,0.111702128,0.10106383,0.085106383,0.122340426,0.287234043,0.14893617,0.075268817,0.875576037,0.087557604,0.693548387
313,Browns Plains,153.0626637,-27.66269741,1850759.299,-3273942.212,1,2,0.843283582,0.155871886,0.14519573,0.111032028,0.098932384,0.146619217,0.311743772,0.172953737,0.156716418,0.908607864,0.082890542,0.529850746
314,Chambers Flat - Logan Reserve,153.0888548,-27.73674631,1852056.107,-3282340.407,1,5,0.816326531,0.107526882,0.11827957,0.11827957,0.053763441,0.150537634,0.301075269,0.139784946,0.149659864,0.964285714,0.035714286,0.716553288
315,Crestmead,153.0844415,-27.68759469,1852445.118,-3276957.035,1,1,0.689378758,0.19140625,0.1484375,0.1171875,0.12109375,0.16015625,0.3359375,0.19140625,0.208416834,0.884879725,0.065292096,0.607882432
316,Greenbank Military Camp,152.9706693,-27.67143738,1841751.97,-3273536.46,1,6,0.817036297,0.132719487,0.13489357,0.116394225,0.071950751,0.111652711,0.272360818,0.155334671,0.110276217,0.909735162,0.057677492,0.760714938
317,Hillcrest,153.0116434,-27.66516694,1845802.989,-3273459.064,1,5,0.603773585,0.159663866,0.142857143,0.100840336,0.042016807,0.134453782,0.277310924,0.168067227,0.090566038,0.873913043,0.019565217,0.762264151
318,Marsden,153.0975729,-27.6734872,1853943.669,-3275624.236,1,1,0.851485149,0.178217822,0.198019802,0.125412541,0.132013201,0.191419142,0.382838284,0.227722772,0.155115512,0.904558405,0.048433048,0.517051705
319,Munruben - Park Ridge South,153.034773,-27.73789682,1846830.173,-3281669.003,1,7,0.711538462,0.111111111,0.133333333,0.133333333,0.066666667,0.088888889,0.2,0.155555556,0.057692308,0.876404494,0,1
320,Regents Park - Heritage Park,153.0510622,-27.67962808,1849361.706,-3275603.402,1,5,0.809352518,0.110294118,0.102941176,0.066176471,0.077205882,0.102941176,0.246323529,0.106617647,0.09352518,0.945162959,0.043455768,0.761390887
321,Greenbank,152.9120708,-27.77741975,1834366.809,-3284149.018,1,8,0.79616307,0.097701149,0.109195402,0.091954023,0.063218391,0.057471264,0.212643678,0.109195402,0.091127098,0.779835391,0.057613169,0.853717026
322,Jimboomba,153.043741,-27.85502366,1845758.145,-3294475.251,2,6,0.860125261,0.125304136,0.142335766,0.111922141,0.088807786,0.100973236,0.273722628,0.143552311,0.11691023,0.892183288,0.04492363,0.95059151
323,Logan Village,153.1083506,-27.7721682,1853345.76,-3286460.553,1,7,0.781609195,0.099099099,0.099099099,0.09009009,0.054054054,0.09009009,0.234234234,0.09009009,0.034482759,0.913256956,0.029459902,1
324,Bethania - Waterford,153.1487417,-27.69857054,1858455.811,-3279093.947,1,3,0.985507246,0.223529412,0.164705882,0.176470588,0.1,0.164705882,0.341176471,0.229411765,0.139130435,0.975873544,0.044925125,0.879227053
325,Cornubia - Carbrook,153.2389043,-27.66871316,1867636.504,-3277200.399,1,9,0.661596958,0.125,0.166666667,0.125,0.020833333,0.09375,0.270833333,0.145833333,0.060836502,0.595444685,0.026030369,0.765525982
326,Loganholme - Tanah Merah,153.1817653,-27.68017104,1861942.188,-3277592.102,1,6,0.836363636,0.178807947,0.21192053,0.185430464,0.139072848,0.112582781,0.364238411,0.225165563,0.083116883,0.946308725,0.026845638,0.962770563
327,Loganlea,153.1387752,-27.67028322,1857965.758,-3275886.064,1,2,0.856304985,0.211180124,0.167701863,0.130434783,0.111801242,0.130434783,0.366459627,0.192546584,0.158357771,0.935456832,0.050293378,0.633431085
328,Shailer Park,153.1775513,-27.64977086,1862042.149,-3274240.715,1,9,0.884393064,0.119318182,0.125,0.119318182,0.034090909,0.079545455,0.232954545,0.125,0.075144509,0.875621891,0.039800995,0.849710983
329,Waterford West,153.1255101,-27.6927746,1856314.728,-3278123.498,1,1,0.881355932,0.126865672,0.097014925,0.067164179,0.111940299,0.156716418,0.26119403,0.134328358,0.228813559,0.915560917,0.043425814,0.610169492
330,Daisy Hill,153.157838,-27.6302571,1860467.31,-3271837.573,1,8,0.875576037,0.072916667,0.0625,0.072916667,0.041666667,0.03125,0.1875,0.052083333,0.02764977,0.803713528,0,0.761904762
331,Kingston (Qld.),153.1131059,-27.6592409,1855676.19,-3274312.064,1,1,0.77173913,0.257894737,0.252631579,0.194736842,0.189473684,0.2,0.463157895,0.273684211,0.239130435,0.816246057,0.056782334,0.394927536
332,Logan Central,153.098661,-27.6472642,1854483.03,-3272802.985,1,1,0.701421801,0.18699187,0.18699187,0.154471545,0.178861789,0.18699187,0.357723577,0.268292683,0.208530806,0.9375,0.089673913,0.344391785
333,Rochedale South - Priestdale,153.1484069,-27.6035915,1860001.545,-3268813.007,1,8,1,0.124423963,0.087557604,0.115207373,0.059907834,0.064516129,0.244239631,0.119815668,0.057777778,1,0.041958042,1
334,Slacks Creek,153.1336551,-27.64110075,1857957.017,-3272653.001,1,1,0.664850136,0.163265306,0.176870748,0.142857143,0.115646259,0.176870748,0.353741497,0.244897959,0.21253406,0.800620636,0.069821567,0.501362398
335,Springwood,153.1383203,-27.62041757,1858749.96,-3270484.208,1,7,0.878787879,0.075268817,0.075268817,0.129032258,0.053763441,0.064516129,0.193548387,0.11827957,0.090909091,0.781758958,0.06514658,0.800505051
336,Underwood,153.1113081,-27.60886358,1856338.339,-3268834.868,1,7,0.86746988,0.112244898,0.102040816,0.12244898,0.020408163,0.163265306,0.275510204,0.132653061,0.032128514,0.80875576,0.020737327,0.471218206
337,Woodridge,153.105734,-27.62850097,1855475.561,-3270877.245,1,1,0.722772277,0.228070175,0.192982456,0.140350877,0.175438596,0.184210526,0.377192982,0.254385965,0.178217822,1,0.042613636,0.336633663
338,Bowen,148.2303313,-20.01757466,1478672.968,-2378779.752,3,2,0.69787234,0.098214286,0.0625,0.0625,0.089285714,0.071428571,0.196428571,0.098214286,0.510638298,0.997555012,0.02200489,0.885106383
339,Broadsound - Nebo,148.7266373,-22.18575866,1502137.309,-2621500.923,3,5,0.615384615,0.053097345,0.03539823,0.044247788,0.044247788,0.044247788,0.150442478,0.053097345,0.16,0.84951024,0.037399822,1
340,Clermont,147.0459473,-22.31936596,1329841.106,-2617139.957,4,6,0.965517241,0.089552239,0.059701493,0.014925373,0.179104478,0.104477612,0.23880597,0.134328358,0.086206897,1,0,1
341,Collinsville,147.6190258,-20.74019045,1406801.962,-2450831.294,4,3,0.673913043,0.104166667,0.145833333,0.083333333,0.0625,0.083333333,0.208333333,0.145833333,0.239130435,0.771159875,0,0.891304348
342,Moranbah,147.8898005,-21.94721972,1420025.953,-2585751.153,3,8,0.863157895,0.084415584,0.142857143,0.071428571,0.077922078,0.071428571,0.201298701,0.123376623,0.152631579,0.985007496,0.017991004,1
343,Andergrove - Beaconsfield,149.1799696,-21.09398871,1562609.099,-2507932.302,2,4,0.857142857,0.108498933,0.111327567,0.107952752,0.088388176,0.12362496,0.235361815,0.141914025,0.31292517,1,0.054193548,0.969009826
344,East Mackay,149.2049105,-21.15663048,1564332.677,-2515079.79,2,3,0.646464646,0.228070175,0.175438596,0.192982456,0.070175439,0.157894737,0.315789474,0.245614035,0.060606061,0.764872521,0,0.68013468
345,Eimeo - Rural View,149.1690626,-21.05992042,1561942.874,-2504077.875,2,6,0.883826879,0.086734694,0.081632653,0.102040816,0.071428571,0.081632653,0.219387755,0.107142857,0.291571754,1,0.062540717,0.950645406
346,Eungella Hinterland,148.4569446,-21.05106021,1489060.414,-2494466.037,3,6,0.677161447,0.108922007,0.085551793,0.067167325,0.079454301,0.085929051,0.216382508,0.122856497,0.182757643,0.835236454,0.033630357,0.912955537
347,Mackay,149.1822665,-21.14318117,1562192.54,-2513330.216,2,1,0.685714286,0.12028151,0.111964171,0.104926424,0.084452975,0.111964171,0.250159949,0.142674344,0.314285714,1,0,0.39047619
348,Mackay Harbour,149.2158123,-21.11711442,1565973.563,-2510902.639,2,8,0.75,0.095072446,0.104071495,0.096812041,0.082160434,0.114231232,0.218365247,0.128457668,0,0.413793103,0,0.333333333
349,Mount Pleasant - Glenella,149.1280595,-21.10608083,1557131.743,-2508607.908,2,8,0.894366197,0.170542636,0.162790698,0.147286822,0.124031008,0.19379845,0.302325581,0.217054264,0.197183099,0.875890132,0.042726348,0.938967136
350,North Mackay,149.1856773,-21.12181389,1562824.981,-2511040.444,2,2,0.778443114,0.158536585,0.146341463,0.109756098,0.085365854,0.146341463,0.256097561,0.170731707,0.191616766,0.799307958,0.031141869,0.750499002
351,Ooralea - Bakers Creek,149.1564308,-21.19354225,1558880.926,-2518505.921,2,7,0.818181818,0.05,0.1,0.075,0.0625,0.05,0.2125,0.0875,0.142857143,0.914972274,0.033271719,0.948051948
352,Pioneer Valley,148.7328522,-21.18074391,1515681.923,-2511927.365,3,5,0.778571429,0.107692308,0.1,0.092307692,0.076923077,0.130769231,0.238461538,0.146153846,0.157142857,0.975535168,0.055045872,1
353,Sarina,149.2159564,-21.55280225,1560204.362,-2558441.524,3,3,0.694610778,0.175675676,0.135135135,0.094594595,0.128378378,0.148648649,0.297297297,0.168918919,0.245508982,0.822580645,0.040747029,0.850299401
354,Seaforth - Calen,148.7883616,-20.8784728,1525268.775,-2479587.896,3,5,0.640776699,0.170731707,0.06097561,0.048780488,0.134146341,0.085365854,0.268292683,0.146341463,0.174757282,0.744740533,0.042075736,0.760517799
355,Shoal Point - Bucasia,149.147159,-21.02550531,1560153.47,-2500048.827,2,5,0.8,0.071428571,0.071428571,0.091836735,0.030612245,0.030612245,0.153061224,0.071428571,0.291891892,1,0,0.951351351
356,Slade Point,149.2141923,-21.08286101,1566262.507,-2507143.697,2,3,0.9,0.018181818,0.054545455,0.072727273,0.072727273,0.072727273,0.163636364,0.072727273,0.38,0.896551724,0.051724138,0.76
357,South Mackay,149.1811765,-21.16481106,1561794.36,-2515677.432,2,2,0.781456954,0.16091954,0.126436782,0.091954023,0.091954023,0.149425287,0.298850575,0.195402299,0.278145695,1,0.033771107,0.865342163
358,Walkerston - Eton,149.0568378,-21.27431301,1547625.455,-2526090.08,3,7,0.579365079,0.077586207,0.094827586,0.112068966,0.034482759,0.094827586,0.215517241,0.112068966,0.126984127,0.869222097,0.067643743,0.952380952
359,West Mackay,149.1627426,-21.15148302,1560083.521,-2513993.794,2,4,0.84,0.053571429,0.035714286,0.053571429,0,0.017857143,0.089285714,0.035714286,0.146666667,0.996204934,0.034155598,0.857777778
360,Airlie - Whitsundays,148.8760772,-20.24176198,1542549.29,-2411070.315,3,6,0.809782609,0.088435374,0.088435374,0.136054422,0.074829932,0.040816327,0.217687075,0.115646259,0.059782609,0.826221877,0.013964313,0.704710145
361,Cape Conway,148.7808752,-20.39555425,1530736.108,-2426722.231,3,6,0.736891304,0.121537275,0.173083666,0.13503752,0.078652079,0.066799916,0.289255909,0.140297356,0.109891304,0.777883666,0.030845793,0.727021739
362,Proserpine,148.4844667,-20.40913405,1500004.99,-2424632.957,3,4,0.664,0.154639175,0.257731959,0.134020619,0.082474227,0.092783505,0.360824742,0.164948454,0.16,0.729545455,0.047727273,0.749333333
363,Beachmere - Sandstone Point,153.0634311,-27.06298438,1860752.235,-3209067.104,1,3,0.897727273,0.115606936,0.138728324,0.138728324,0.144508671,0.104046243,0.25433526,0.184971098,0.238636364,0.761557178,0.04379562,0.84280303
364,Bribie Island,153.1357112,-26.98853193,1868988.851,-3202085.085,2,3,0.742857143,0.117117117,0.099099099,0.108108108,0.081081081,0.072072072,0.234234234,0.135135135,0.107142857,0.715767635,0.037344398,0.666666667
365,Burpengary - East,153.0021845,-27.12856137,1853738.649,-3215257.019,1,8,0.872340426,0.109375,0.140625,0.15625,0.0625,0.125,0.28125,0.15625,0.085106383,1,0.214925373,1
366,Caboolture,152.9714649,-27.06326987,1851839.319,-3207739.557,1,1,0.81897628,0.156218905,0.15721393,0.166169154,0.100497512,0.117412935,0.32238806,0.1960199,0.20474407,1,0.085622547,0.88639201
367,Caboolture - South,152.9355296,-27.10249241,1847713.848,-3211454.673,1,1,0.85138539,0.189041096,0.175342466,0.202739726,0.090410959,0.115068493,0.356164384,0.208219178,0.221662469,0.975812274,0.090974729,0.889168766
368,Elimbah,152.9614161,-27.00037306,1851900.591,-3200785.912,1,7,0.79245283,0.073170732,0.048780488,0,0.024390244,0,0.073170732,0.048780488,0.188679245,0.872282609,0.114130435,1
369,Morayfield - East,152.9650296,-27.10757336,1850486.966,-3212438.515,1,3,0.944055944,0.192,0.208,0.224,0.088,0.168,0.4,0.264,0.328671329,0.985207101,0.076923077,0.976689977
370,Wamuran,152.8722708,-27.04249835,1842570.003,-3204033.883,1,8,0.969072165,0.2,0.125,0.125,0.075,0.125,0.275,0.175,0.082474227,0.71641791,0,0.962199313
371,Kilcoy,152.3834452,-26.78331122,1799324.388,-3168895.17,2,2,0.75177305,0.075,0.0375,0.0125,0.05,0.0875,0.1875,0.0625,0.184397163,0.909638554,0,0.822695035
372,Woodford - D'Aguilar,152.7630804,-26.95077398,1833482.168,-3192510.388,2,4,0.617977528,0.17721519,0.075949367,0.063291139,0.063291139,0,0.240506329,0.088607595,0.146067416,0.753646677,0.077795786,0.887640449
373,Burpengary,152.9582539,-27.15847408,1848993.625,-3217846.452,1,5,0.831353919,0.128654971,0.087719298,0.058479532,0.058479532,0.076023392,0.210526316,0.111111111,0.118764846,0.825051055,0.061266167,0.866191607
374,Deception Bay,153.0097953,-27.17829133,1853655.256,-3220749.995,1,2,0.818325434,0.174496644,0.117449664,0.110738255,0.104026846,0.167785235,0.318791946,0.187919463,0.233807267,0.94537246,0.070428894,0.840442338
375,Morayfield,152.9215784,-27.14316028,1845695.175,-3215650.265,1,8,0.666666667,0.14893617,0.191489362,0.063829787,0.127659574,0.14893617,0.319148936,0.14893617,0.057142857,0.834710744,0,1
376,Narangba,152.9238013,-27.18557985,1845213.888,-3220273.118,1,8,0.701708279,0.121495327,0.080996885,0.090342679,0.056074766,0.068535826,0.246105919,0.08411215,0.065703022,0.720405862,0.060879369,0.844502847
377,Upper Caboolture,152.8670393,-27.12283991,1840747.915,-3212651.412,1,8,0.536585366,0.172413793,0.137931034,0.103448276,0.137931034,0.137931034,0.275862069,0.172413793,0.073170732,0.731182796,0,0.804878049
378,Clontarf,153.082174,-27.2470708,1859520.065,-3229260.828,1,4,0.699029126,0.151898734,0.101265823,0.075949367,0.075949367,0.17721519,0.278481013,0.126582278,0.145631068,0.862552595,0.025245442,0.828478964
379,Margate - Woody Point,153.1027057,-27.24797861,1861490.371,-3229663.006,1,3,0.773972603,0.090163934,0.098360656,0.081967213,0.081967213,0.057377049,0.180327869,0.131147541,0.205479452,0.820588235,0.035294118,0.785388128
380,Redcliffe,153.10737,-27.22692108,1862290.455,-3227453.958,1,2,0.852459016,0.123376623,0.125,0.121753247,0.084415584,0.092532468,0.266233766,0.147727273,0.142076503,0.83775351,0.168486739,0.801457195
381,Rothwell - Kippa-Ring,153.0647299,-27.21607942,1858345.851,-3225649.803,1,3,0.754639175,0.172897196,0.163551402,0.14953271,0.107476636,0.112149533,0.336448598,0.200934579,0.18556701,0.86568915,0.045747801,0.757388316
382,Scarborough - Newport - Moreton Island,153.3926496,-27.1537402,1891106.755,-3223798.385,1,6,0.656,0.103773585,0.094339623,0.103773585,0.066037736,0.066037736,0.235849057,0.122641509,0.168,0.683848797,0.041237113,0.722666667
383,Albany Creek,152.9689873,-27.35441809,1846807.679,-3239206.621,1,10,0.839662447,0.082474227,0.103092784,0.097938144,0.051546392,0.097938144,0.231958763,0.118556701,0.054852321,0.750455373,0.04007286,0.88466948
384,Cashmere,152.9212751,-27.29834987,1843118.12,-3232439.024,1,10,1,0.1,0.109677419,0.090322581,0.048387097,0.080645161,0.219354839,0.112903226,0.055384615,0.99343832,0.052493438,1
385,Dayboro,152.813436,-27.21886418,1833989.864,-3222259.513,2,9,0.671280277,0.080357143,0.080357143,0.080357143,0.071428571,0.035714286,0.169642857,0.089285714,0.048442907,0.702755906,0,0.828143022
386,Eatons Hill,152.9369856,-27.3399908,1843952.695,-3237175.533,1,10,0.865248227,0.067307692,0.057692308,0.038461538,0.019230769,0.038461538,0.134615385,0.057692308,0.056737589,0.735503561,0.054933876,0.891252955
387,The Hills District,152.9413212,-27.38112667,1843695.63,-3241690.521,1,10,0.989071038,0.086522463,0.083194676,0.074875208,0.044093178,0.06156406,0.188851913,0.09234609,0.035519126,0.992190551,0.056228036,1
388,Samford Valley,152.8380016,-27.35724509,1834104.785,-3237594.261,1,10,0.8815427,0.044117647,0.066176471,0.066176471,0.014705882,0.014705882,0.117647059,0.058823529,0.016528926,0.671428571,0.014285714,0.835629017
389,Dakabin - Kallangur,152.9899765,-27.23947777,1850729.363,-3227078.297,1,4,0.868932039,0.110810811,0.140540541,0.124324324,0.105405405,0.121621622,0.308108108,0.148648649,0.148058252,1,0.074740484,0.978964401
390,Murrumba Downs - Griffin,153.0313644,-27.27033797,1854222.555,-3231027.451,1,8,0.849270665,0.159663866,0.204481793,0.1232493,0.103641457,0.134453782,0.316526611,0.18767507,0.110210697,1,0.091286307,1
391,North Lakes - Mango Hill,153.0318677,-27.23351037,1854879.313,-3227050.24,1,8,0.951377634,0.114777618,0.130559541,0.120516499,0.050215208,0.096126255,0.272596844,0.137733142,0.085899514,0.884137931,0.037241379,0.839005943
392,Bray Park,152.9677491,-27.2924335,1847708.122,-3232481.263,1,5,0.894259819,0.107692308,0.153846154,0.153846154,0.061538462,0.084615385,0.269230769,0.130769231,0.13897281,0.958441558,0.083116883,0.960725076
393,Lawnton,152.9823027,-27.28106158,1849302.326,-3231464.831,1,4,0.818181818,0.189473684,0.105263158,0.126315789,0.136842105,0.105263158,0.4,0.126315789,0.285714286,1,0.08,1
394,Petrie,152.9724975,-27.26487888,1848620.731,-3229569.528,1,7,0.86,0.165517241,0.165517241,0.179310345,0.082758621,0.137931034,0.337931034,0.172413793,0.106666667,0.76492891,0.085308057,0.848888889
395,Strathpine - Brendale,152.9832626,-27.31438288,1848846.324,-3235084.468,1,4,0.957746479,0.171597633,0.224852071,0.177514793,0.136094675,0.159763314,0.384615385,0.236686391,0.163380282,0.954983923,0.057877814,0.830046948
396,Aurukun,141.8290096,-13.60693541,859066.659,-1609519.653,5,1,0.97188755,0.291452235,0.143581371,0.148217521,0.311282068,0.164440309,0.461483065,0.311800102,1,0.874371859,0,0.530120482
397,Cape York,143.2364542,-14.14439606,1008820.94,-1680112.871,4,1,0.97188755,0.291452235,0.143581371,0.148217521,0.311282068,0.164440309,0.461483065,0.311800102,1,1,0,0.530120482
398,Croydon - Etheridge,143.0373915,-18.52541819,952104.4492,-2164564.996,5,2,0.944444444,0.161681287,0.160847953,0.147295322,0.18498538,0.179312865,0.33755848,0.213362573,0.222222222,0.830769231,0,0.888888889
399,Kowanyama - Pormpuraaw,141.8084441,-14.93885294,847551.9544,-1758236.312,5,1,0.929577465,0.677419355,0.096774194,0.161290323,0.548387097,0.129032258,0.709677419,0.548387097,1,0.988505747,0,0.572769953
400,Northern Peninsula,142.3130953,-11.00471175,931522.2843,-1319890.837,5,1,0.738095238,0.112903226,0.241935484,0.258064516,0.322580645,0.193548387,0.467741935,0.306451613,1,1,0,0.063492063
401,Tablelands,143.9215285,-16.98539979,1058516.563,-2001557.84,3,3,0.482758621,0.172892113,0.147892566,0.125503294,0.16642024,0.159561546,0.34296628,0.203532316,0.275862069,0.656019656,0,0.637931034
402,Torres,142.4122228,-10.72965388,944703.0309,-1289460.887,5,2,1,0.058823529,0.117647059,0.088235294,0.191176471,0.161764706,0.352941176,0.161764706,1,0.782846715,0,0.309677419
403,Torres Strait Islands,142.3666204,-9.856940121,946201.283,-1189951.857,5,1,0.654411765,0.258064516,0.322580645,0.225806452,0.204301075,0.430107527,0.612903226,0.397849462,1,0.830188679,0,0.012254902
404,Weipa,141.8610108,-12.64206362,869357.2215,-1501431.943,5,9,0.774647887,0.147058824,0.102941176,0.073529412,0.132352941,0.161764706,0.205882353,0.147058824,0.352112676,1,0,1
405,Carpentaria,140.2839834,-17.73407029,666699.5066,-2059429.671,5,1,0.917874396,0.223684211,0.289473684,0.223684211,0.328947368,0.197368421,0.486842105,0.315789474,1,0.859481583,0,0.743961353
406,Mount Isa,139.5102837,-20.72582544,570196.9417,-2385451.022,4,5,0.867741935,0.183870968,0.122580645,0.135483871,0.132258065,0.129032258,0.332258065,0.174193548,0.674193548,1,0.024793388,1
407,Mount Isa Region,139.6531782,-20.53429435,585921.4344,-2365052.154,4,3,0.68,0.189655172,0.155172414,0.155172414,0.086206897,0.155172414,0.293103448,0.189655172,0.64,1,0,0.966666667
408,Northern Highlands,142.9444927,-20.7036506,925253.0415,-2403449.279,5,4,0.723404255,0.105263158,0.122807018,0.087719298,0.175438596,0.175438596,0.245614035,0.175438596,0.127659574,0.872727273,0,1
409,Barcaldine - Blackall,145.7254841,-23.71913619,1181350.46,-2756711.455,5,4,0.706666667,0.114754098,0.081967213,0.098360656,0.131147541,0.147540984,0.245901639,0.131147541,0.173333333,0.842307692,0,0.951111111
410,Charleville,146.4917807,-26.18754862,1231485.769,-3033108.019,5,3,0.587301587,0.228070175,0.105263158,0.052631579,0.157894737,0.280701754,0.385964912,0.228070175,0.587301587,1,0.068493151,1
411,Far Central West,140.7350742,-23.84921567,678460.0023,-2733998.645,5,3,0.869565217,0.12959202,0.100856226,0.112487005,0.130806954,0.146711912,0.266806955,0.151234241,0.304347826,1,0,1
412,Far South West,143.8590484,-27.44245563,961781.5529,-3146943.321,5,2,0.451612903,0.142069631,0.094264246,0.092699252,0.129801059,0.165516746,0.294990333,0.151587603,0.709677419,0.849230769,0,0.616487455
413,Longreach,143.9584101,-23.71495239,1003758.842,-2740891.901,5,5,0.831683168,0.108695652,0.043478261,0.108695652,0.130434783,0.108695652,0.282608696,0.108695652,0.138613861,0.879888268,0.100558659,0.884488449
414,Buderim - North,153.0434927,-26.67607091,1865213.287,-3166911.631,1,8,0.981627297,0.075862069,0.089655172,0.04137931,0.034482759,0.04137931,0.151724138,0.082758621,0.031496063,0.859742229,0.013646702,0.967629046
415,Buderim - South,153.0503428,-26.70582712,1865387.295,-3170232.608,1,9,1,0.058823529,0.070588235,0.070588235,0.041176471,0.047058824,0.164705882,0.076470588,0.030769231,0.874360847,0.048210373,1
416,Mountain Creek,153.1013965,-26.70256479,1870401.969,-3170638.499,1,7,0.879432624,0.060913706,0.076142132,0.091370558,0.030456853,0.030456853,0.157360406,0.065989848,0.085106383,0.747972973,0.036486486,0.885736801
417,Sippy Downs,153.0802963,-26.722737,1868017.843,-3172506.959,1,5,0.874576271,0.074380165,0.115702479,0.082644628,0.049586777,0.132231405,0.272727273,0.123966942,0.061016949,0.851390221,0.086289549,0.922033898
418,Aroona - Currimundi,153.1202846,-26.77362973,1871058.432,-3178607.536,1,5,0.827586207,0.147286822,0.170542636,0.124031008,0.108527132,0.108527132,0.294573643,0.19379845,0.062068966,0.862239841,0.041625372,0.951724138
419,Buddina - Minyama,153.1280571,-26.69551801,1873109.319,-3170273.26,1,6,0.797385621,0.104477612,0.149253731,0.149253731,0.014925373,0.029850746,0.268656716,0.149253731,0.039215686,0.779220779,0.033395176,0.819172113
420,Caloundra - Kings Beach,153.1300356,-26.79882789,1871587.077,-3181478.652,1,2,0.897959184,0.142857143,0.238095238,0.095238095,0.047619048,0.214285714,0.333333333,0.214285714,0,0.812680115,0,0.653061224
421,Caloundra - West,153.0760465,-26.7976858,1866364.644,-3180552.175,1,6,0.859237537,0.082568807,0.091743119,0.097859327,0.058103976,0.064220183,0.22324159,0.100917431,0.076246334,0.820134794,0.050547599,0.9257087
422,Golden Beach - Pelican Waters,153.1050383,-26.83013569,1868641.446,-3184493.554,1,6,0.897637795,0.118644068,0.127118644,0.110169492,0.059322034,0.06779661,0.262711864,0.127118644,0.11023622,0.708240535,0.073496659,0.68503937
423,Moffat Beach - Battery Hill,153.1359803,-26.78733638,1872354.946,-3180324.072,1,5,0.860465116,0.036144578,0.060240964,0.060240964,0.060240964,0.024096386,0.168674699,0.048192771,0.069767442,0.986577181,0.070469799,0.984496124
424,Parrearra - Warana,153.1260313,-26.72233186,1872467.583,-3173143.761,1,7,0.894941634,0.090909091,0.056818182,0.068181818,0.011363636,0.056818182,0.170454545,0.079545455,0.062256809,0.774193548,0.026696329,0.941634241
425,Wurtulla - Birtinya,153.1237574,-26.75012707,1871785.552,-3176116.744,1,7,0.831683168,0.090909091,0.141414141,0.080808081,0.060606061,0.101010101,0.222222222,0.131313131,0.099009901,0.970833333,0.058333333,0.97689769
426,Coolum Beach,153.0859033,-26.54065673,1871577.38,-3152892.117,1,7,0.888311688,0.082872928,0.138121547,0.132596685,0.060773481,0.082872928,0.215469613,0.121546961,0.046753247,0.959821429,0.013392857,1
427,Marcoola - Mudjimba,153.0770396,-26.61125546,1869546.475,-3160397.893,1,6,0.676156584,0.120689655,0.181034483,0.181034483,0.103448276,0.155172414,0.284482759,0.215517241,0.113879004,0.850152905,0,0.794780546
428,Maroochydore - Kuluin,153.0777022,-26.6544725,1868895.649,-3165083.194,1,4,0.946107784,0.094117647,0.082352941,0.064705882,0.052941176,0.041176471,0.205882353,0.088235294,0.119760479,0.983022071,0.056027165,0.9500998
429,Mooloolaba - Alexandra Headland,153.1112052,-26.68018074,1871726.134,-3168362.999,1,6,1,0.140186916,0.224299065,0.158878505,0.093457944,0.102803738,0.401869159,0.186915888,0.074534161,1,0,0.968944099
430,Noosa Heads,153.0928606,-26.39810542,1874615.528,-3137574.005,1,9,1,0.1,0.05,0.125,0.05,0.1,0.225,0.075,0,0.975,0,0.971428571
431,Noosaville,153.0606088,-26.42286989,1871063.75,-3139772.543,1,7,0.927152318,0.040540541,0.013513514,0.027027027,0.027027027,0.013513514,0.094594595,0.013513514,0.105960265,0.883365201,0,0.98013245
432,Sunshine Beach,153.1018092,-26.41864849,1875146.935,-3139929.932,1,8,1,0.048387097,0.096774194,0.112903226,0.048387097,0.096774194,0.177419355,0.112903226,0,0.808219178,0.054794521,0.797900262
433,Tewantin,153.0161457,-26.39368324,1867213.994,-3135953.489,1,4,0.942222222,0.046511628,0.034883721,0.046511628,0.046511628,0.069767442,0.104651163,0.081395349,0.071111111,0.770886076,0.06835443,0.752592593
434,Peregian Beach - Marcus Beach,153.0899459,-26.46594862,1873207.99,-3144870.107,1,8,0.691358025,0.073941877,0.093094049,0.104288759,0.051608885,0.076182721,0.180755188,0.097114892,0.148148148,0.74204947,0,0.814814815
435,Peregian Springs,153.071797,-26.49401111,1870976.513,-3147635.696,1,9,0.873846154,0.089979609,0.104982685,0.113363997,0.063643186,0.078447841,0.204703088,0.111372164,0.018461538,0.611599297,0.052724077,0.693333333
436,Beerwah,152.9638926,-26.85782316,1854485.96,-3185398.316,2,4,0.711462451,0.125,0.080357143,0.071428571,0.0625,0.0625,0.214285714,0.107142857,0.181818182,0.799081515,0.048220436,0.885375494
437,Caloundra Hinterland,152.7631736,-26.73730665,1836966.413,-3169408.842,2,5,0.662857143,0.101694915,0.220338983,0.13559322,0.050847458,0.13559322,0.355932203,0.13559322,0.045714286,0.655172414,0.039408867,0.636190476
438,Glass House Mountains,152.9670939,-26.92557728,1853681.71,-3192776.596,2,6,0.836601307,0.135802469,0.148148148,0.086419753,0.074074074,0.049382716,0.259259259,0.135802469,0.039215686,0.796261682,0.03364486,0.91503268
439,Landsborough,152.9922574,-26.78412907,1858452.892,-3177843.727,2,6,0.756756757,0.123076923,0.084615385,0.092307692,0.053846154,0.046153846,0.215384615,0.1,0.074324324,0.835111542,0.034917556,0.918918919
440,Maroochy Hinterland,152.7687354,-26.59699651,1839791.762,-3154305.008,2,6,0.820512821,0.02173913,0.02173913,0.02173913,0.02173913,0.043478261,0.086956522,0.043478261,0.051282051,0.709756098,0,0.871794872
441,Palmwoods,152.9421348,-26.7029045,1854920.318,-3168314.724,1,7,0.789297659,0.051282051,0.068376068,0.051282051,0.034188034,0.034188034,0.153846154,0.05982906,0.053511706,0.704347826,0.017391304,0.807134894
442,Bli Bli,153.015704,-26.59773434,1863804.674,-3158023.994,1,7,0.882591093,0.093220339,0.093220339,0.118644068,0.059322034,0.076271186,0.237288136,0.110169492,0.08097166,0.965397924,0.048442907,1
443,Diddillibah - Rosemount,153.0111419,-26.64258345,1862621.236,-3162808.746,2,7,1,0.146341463,0.048780488,0.097560976,0.024390244,0.12195122,0.219512195,0.097560976,0,0.627272727,0,0.75
444,Eumundi - Yandina,152.9800807,-26.51514388,1861699.688,-3148560.026,2,6,0.826229508,0.079136691,0.064748201,0.071942446,0.071942446,0.043165468,0.18705036,0.086330935,0.045901639,0.769736842,0.039473684,0.861202186
445,Nambour,152.95044,-26.63304729,1856875.956,-3160878.655,1,3,0.793867121,0.102112676,0.110915493,0.107394366,0.068661972,0.095070423,0.242957746,0.123239437,0.143100511,0.879941435,0.055636896,0.892674617
446,Noosa Hinterland,152.9371422,-26.32099582,1860709.728,-3126916.93,2,6,0.850909091,0.123966942,0.123966942,0.144628099,0.070247934,0.111570248,0.23553719,0.140495868,0.069090909,0.687888199,0.01863354,0.789090909
447,Cambooya - Wyreema,151.8729918,-27.69048022,1735631.177,-3259975.127,2,9,0.804597701,0.09929078,0.120567376,0.134751773,0.056737589,0.056737589,0.241134752,0.120567376,0.099616858,0.947403055,0.059094299,0.912590231
448,Darling Heights,151.9338081,-27.60525067,1742823.727,-3251582.057,2,3,0.940298507,0.191588785,0.14953271,0.112149533,0.135514019,0.177570093,0.35046729,0.205607477,0.109452736,1,0.071830986,0.739635158
449,Drayton - Harristown,151.9126953,-27.59129112,1741002.941,-3249776.934,2,2,0.86259542,0.117647059,0.12605042,0.12605042,0.042016807,0.117647059,0.285714286,0.151260504,0.328244275,0.927631579,0.105263158,0.837150127
450,Gatton,152.2877831,-27.56211663,1777667.188,-3251867.663,2,1,0.721311475,0.065217391,0.02173913,0.043478261,0.097826087,0.108695652,0.217391304,0.076086957,0.153005464,0.982677165,0.094488189,0.775956284
451,Gowrie (Qld),151.8672986,-27.45386588,1738751.887,-3234258.523,2,8,0.6484375,0.128205128,0.136752137,0.128205128,0.068376068,0.025641026,0.273504274,0.136752137,0.1015625,0.861915367,0,1
452,Highfields,151.9634951,-27.42324814,1748526.952,-3232275.972,2,10,0.772234273,0.074468085,0.042553191,0.042553191,0.037234043,0.053191489,0.132978723,0.058510638,0.086767896,0.757481297,0.048628429,0.911062907
453,Lockyer Valley - West,152.169768,-27.64460282,1764974.958,-3259138.279,2,5,0.653846154,0.090277778,0.111111111,0.097222222,0.069444444,0.048611111,0.215277778,0.131944444,0.153846154,0.907678245,0.08226691,0.961538462
454,Middle Ridge,151.9668849,-27.60709356,1745987.512,-3252240.853,2,10,0.986784141,0.128205128,0.128205128,0.11965812,0.085470085,0.111111111,0.230769231,0.136752137,0.070484581,0.781771502,0.023106547,0.872246696
455,Newtown (Qld),151.9325333,-27.55601354,1743467.109,-3246229.752,2,2,0.784140969,0.192,0.12,0.128,0.128,0.104,0.36,0.176,0.334801762,1,0.022900763,0.995594714
456,North Toowoomba - Harlaxton,151.9524997,-27.52753102,1745838.953,-3243421.052,2,3,0.991596639,0.115384615,0.076923077,0.064102564,0.115384615,0.128205128,0.320512821,0.102564103,0.352941176,1,0.114832536,1
457,Rangeville,151.9863389,-27.58485208,1748212.334,-3250101.649,2,8,0.929824561,0.141509434,0.066037736,0.056603774,0.075471698,0.066037736,0.20754717,0.113207547,0.114035088,0.833756345,0,0.84502924
458,Toowoomba - Central,151.9549449,-27.57488788,1745337.047,-3248585.756,2,4,0.857142857,0.113475177,0.134751773,0.113475177,0.092198582,0.156028369,0.290780142,0.177304965,0.180758017,0.796680498,0.049792531,0.837706511
459,Toowoomba - East,151.9804305,-27.55013295,1748183.857,-3246258.026,2,8,0.860759494,0.121495327,0.056074766,0.065420561,0.056074766,0.056074766,0.214953271,0.065420561,0.126582278,0.808252427,0.029126214,0.894514768
460,Toowoomba - West,151.8449806,-27.56542076,1734866.621,-3246037.385,2,8,0.821852732,0.143478261,0.130434783,0.091304348,0.060869565,0.07826087,0.234782609,0.147826087,0.180522565,0.964140731,0.064952639,0.996041172
461,Wilsonton,151.9231533,-27.52611881,1743026.442,-3242860.692,2,2,0.675603217,0.223529412,0.2,0.194117647,0.129411765,0.211764706,0.405882353,0.252941176,0.294906166,0.928189458,0.032085561,0.825737265
462,Ayr,147.4124393,-19.57671073,1399194.961,-2321115.528,3,3,0.791111111,0.107142857,0.098214286,0.080357143,0.125,0.133928571,0.285714286,0.151785714,0.248888889,0.953846154,0.023076923,0.948148148
463,Burdekin,147.2444733,-19.83010592,1378799.356,-2347037.053,3,4,0.768361582,0.118421053,0.171052632,0.118421053,0.052631579,0.092105263,0.25,0.144736842,0.372881356,0.889789303,0,1
464,Charters Towers,146.2685238,-20.06855991,1274974.274,-2362872.085,3,2,0.524444444,0.191919192,0.161616162,0.141414141,0.141414141,0.131313131,0.323232323,0.202020202,0.328888889,0.766367137,0.023106547,0.651851852
465,Dalrymple,145.7837264,-20.1419772,1223986.57,-2366102.164,4,4,0.554621849,0.14,0.12,0.1,0.08,0.1,0.24,0.14,0.168067227,0.806845966,0,0.840336134
466,Ingham,146.1544016,-18.65511926,1278209.806,-2206509.994,3,2,0.860465116,0.112903226,0.14516129,0.112903226,0.14516129,0.14516129,0.290322581,0.241935484,0.23255814,0.993377483,0,0.984496124
467,Ingham Region,146.0459029,-18.66183741,1266763.685,-2206150.303,4,5,0.71875,0.152040567,0.128638634,0.116574639,0.118993912,0.148602598,0.291368281,0.188168109,0.1875,0.791946309,0,0.958333333
468,Palm Island,146.6002383,-18.73135389,1324098.384,-2219508.435,4,1,0.528,NA,NA,NA,NA,NA,NA,NA,1,0.931972789,0,0.949333333
469,Aitkenvale,146.7696727,-19.29954321,1335479.098,-2283714.831,3,3,0.741258741,0.213114754,0.327868852,0.196721311,0.229508197,0.213114754,0.475409836,0.393442623,0.223776224,0.741035857,0.083665339,0.564102564
470,Annandale,146.7912721,-19.32495378,1337445.332,-2286733.711,3,9,0.789699571,0.126213592,0.126213592,0.058252427,0.048543689,0.165048544,0.252427184,0.126213592,0.060085837,0.808118081,0,0.78397711
471,Belgian Gardens - Pallarenda,146.7503174,-19.21150205,1334445.823,-2273844.06,3,6,0.613636364,0.092880491,0.087688837,0.103733042,0.08248017,0.048426479,0.211668839,0.11150368,0.068181818,0.678688525,0.078688525,0.727272727
472,Bohle Plains,146.6453459,-19.31487152,1322350.975,-2284082.756,3,9,0.843283582,0.104761905,0.076190476,0.085714286,0.028571429,0.047619048,0.152380952,0.095238095,0.149253731,0.950053135,0.070138151,1
473,Condon - Rasmussen,146.693717,-19.34937188,1327008.237,-2288379.718,3,2,0.722826087,0.25,0.25625,0.20625,0.19375,0.15,0.45625,0.28125,0.39673913,0.899068323,0.102484472,0.75
474,Cranbrook,146.7528617,-19.30549296,1333660.508,-2284189.402,3,4,0.696296296,0.092307692,0.153846154,0.092307692,0.092307692,0.138461538,0.323076923,0.138461538,0.340740741,0.922580645,0.038709677,0.809876543
475,Deeragun,146.6689924,-19.23116236,1325744.956,-2275141.884,3,6,0.907834101,0.118393235,0.099365751,0.114164905,0.076109937,0.073995772,0.245243129,0.118393235,0.262672811,1,0.056993122,1
476,Douglas,146.7694791,-19.37072952,1334662.247,-2291526.184,3,9,0.930232558,0.126760563,0.126760563,0.084507042,0.028169014,0.112676056,0.267605634,0.098591549,0.186046512,1,0,0.856589147
477,Garbutt - West End,146.7709403,-19.25816046,1336074.444,-2279185.575,3,2,0.64556962,0.04,0.06,0.1,0.14,0.04,0.26,0.1,0.455696203,0.845744681,0.042553191,0.675105485
478,Gulliver - Currajong - Vincent,146.7738303,-19.28077198,1336122.574,-2281698.494,3,2,0.736842105,0.192982456,0.201754386,0.157894737,0.175438596,0.184210526,0.377192982,0.236842105,0.464912281,0.934243176,0.022332506,0.812865497
479,Heatley,146.7535519,-19.29035054,1333901.704,-2282534.537,3,1,0.71641791,0.245614035,0.245614035,0.210526316,0.245614035,0.298245614,0.421052632,0.298245614,0.462686567,0.730769231,0.128205128,0.592039801
480,Hermit Park - Rosslea,146.8032592,-19.28971017,1339089.841,-2282992.874,3,3,1,0.129032258,0.112903226,0.112903226,0.080645161,0.048387097,0.225806452,0.129032258,0.373831776,1,0,1
481,Hyde Park - Pimlico,146.7921697,-19.2809506,1338032.219,-2281913.222,3,3,0.909090909,0.051724138,0.137931034,0.051724138,0.137931034,0.086206897,0.275862069,0.086206897,0.214876033,0.901408451,0.098591549,0.820936639
482,Kelso,146.6792359,-19.43636575,1324532.929,-2297774.842,3,3,0.717557252,0.160220994,0.110497238,0.110497238,0.127071823,0.143646409,0.29281768,0.154696133,0.437659033,0.946676406,0.087655223,0.754877014
483,Kirwan - East,146.7399057,-19.30263178,1332342.2,-2283737.907,3,2,0.738738739,0.254716981,0.20754717,0.160377358,0.216981132,0.20754717,0.424528302,0.283018868,0.576576577,0.957364341,0.023255814,0.828828829
484,Kirwan - West,146.7206738,-19.30412248,1330321.181,-2283697.805,3,6,0.840707965,0.158102767,0.126482213,0.079051383,0.126482213,0.114624506,0.296442688,0.154150198,0.234513274,0.976875,0.06375,0.992625369
485,Magnetic Island,146.8331198,-19.13882867,1343899.504,-2266747.109,3,3,0.810810811,NA,NA,NA,NA,NA,NA,NA,0,0.874015748,0,0.612612613
486,Mount Louisa,146.727522,-19.25642207,1331567.055,-2278533.91,3,7,0.876470588,0.173913043,0.152173913,0.18115942,0.094202899,0.079710145,0.282608696,0.188405797,0.258823529,1,0.035117057,1
487,Mundingburra,146.7849329,-19.29668278,1337101.585,-2283563.112,3,5,0.826666667,0.051282051,0.102564103,0.076923077,0.025641026,0.128205128,0.230769231,0.076923077,0.08,0.797752809,0,0.72
488,Northern Beaches,146.439568,-19.15658428,1302629.45,-2264553.049,3,4,0.857142857,0.175675676,0.121621622,0.081081081,0.094594595,0.108108108,0.283783784,0.148648649,0.186335404,1,0,0.99378882
489,Oonoonba,146.8185053,-19.30552259,1340501.243,-2284891.07,3,9,0.827225131,0.077777778,0.088888889,0.055555556,0.044444444,0.055555556,0.144444444,0.111111111,0.19895288,0.940029985,0.026986507,0.998254799
490,South Townsville - Railway Estate,146.8262979,-19.26741534,1341741.736,-2280791.311,3,4,0.901098901,0.142857143,0.085714286,0.028571429,0.114285714,0.057142857,0.2,0.085714286,0.307692308,1,0,1
491,Townsville - South,146.8535725,-19.54114297,1341501.939,-2311120.624,3,6,0.905263158,0.170212766,0.127659574,0.063829787,0.127659574,0.063829787,0.319148936,0.14893617,0.147368421,1,0,1
492,Townsville City - North Ward,146.8080279,-19.25413231,1339986.284,-2279138.249,3,8,1,0.039215686,0.039215686,0.019607843,0.019607843,0,0.058823529,0.039215686,0.177777778,0.862579281,0.038054968,0.750617284
493,Wulguru - Roseneath,146.852038,-19.32322535,1343796.319,-2287192.233,3,3,0.561643836,0.277777778,0.074074074,0.018518519,0.111111111,0.148148148,0.333333333,0.185185185,0.356164384,0.8,0.035294118,0.721461187
494,Ashfield - Kepnock,152.3881528,-24.87384991,1830255.142,-2962185.647,2,3,0.845637584,0.2,0.175,0.2,0.1,0.15,0.425,0.2125,0.161073826,1,0,0.921700224
495,Bargara - Burnett Heads,152.4285311,-24.85052621,1834618.518,-2960247.872,2,4,0.834146341,0.151041667,0.114583333,0.125,0.119791667,0.083333333,0.265625,0.177083333,0.146341463,0.81298518,0.071983063,0.842276423
496,Branyan - Kensington,152.286704,-24.91460145,1819582.048,-2965127.169,2,4,0.729927007,0.1875,0.0875,0.1,0.1,0.1,0.275,0.15,0.072992701,0.946351931,0.038626609,0.96836983
497,Bundaberg,152.3485995,-24.87130003,1826386.887,-2961333.981,2,1,0.715447154,0.177736202,0.157156221,0.139382601,0.148737138,0.14686623,0.337698784,0.210477081,0.195121951,1,0.041474654,0.775067751
